street,sq__ft,sale_date,price,latitude,longitude,city,state,zip,beds,baths,type,Empty Lot,Street Types
3526 HIGH ST,836,Wed May 21 00:00:00 EDT 2008,59222,38.631913,-121.43487900000001,SACRAMENTO,CA,95838,2,1,Residential,False,ST
51 OMAHA CT,1167,Wed May 21 00:00:00 EDT 2008,68212,38.478902000000005,-121.431028,SACRAMENTO,CA,95823,3,1,Residential,False,CT
2796 BRANCH ST,796,Wed May 21 00:00:00 EDT 2008,68880,38.618305,-121.44383899999998,SACRAMENTO,CA,95815,2,1,Residential,False,ST
2805 JANETTE WAY,852,Wed May 21 00:00:00 EDT 2008,69307,38.616834999999995,-121.439146,SACRAMENTO,CA,95815,2,1,Residential,False,WAY
6001 MCMAHON DR,797,Wed May 21 00:00:00 EDT 2008,81900,38.51947,-121.435768,SACRAMENTO,CA,95824,2,1,Residential,False,DR
5828 PEPPERMILL CT,1122,Wed May 21 00:00:00 EDT 2008,89921,38.662595,-121.32781299999999,SACRAMENTO,CA,95841,3,1,Condo,False,CT
6048 OGDEN NASH WAY,1104,Wed May 21 00:00:00 EDT 2008,90895,38.681659,-121.35170500000001,SACRAMENTO,CA,95842,3,2,Residential,False,WAY
2561 19TH AVE,1177,Wed May 21 00:00:00 EDT 2008,91002,38.535092,-121.48136699999999,SACRAMENTO,CA,95820,3,1,Residential,False,AVE
11150 TRINITY RIVER DR Unit 114,941,Wed May 21 00:00:00 EDT 2008,94905,38.621188000000004,-121.270555,RANCHO CORDOVA,CA,95670,2,2,Condo,False,DR
7325 10TH ST,1146,Wed May 21 00:00:00 EDT 2008,98937,38.700909,-121.44297900000001,RIO LINDA,CA,95673,3,2,Residential,False,ST
645 MORRISON AVE,909,Wed May 21 00:00:00 EDT 2008,100309,38.637663,-121.45152,SACRAMENTO,CA,95838,3,2,Residential,False,AVE
4085 FAWN CIR,1289,Wed May 21 00:00:00 EDT 2008,106250,38.470746000000005,-121.458918,SACRAMENTO,CA,95823,3,2,Residential,False,CIR
2930 LA ROSA RD,871,Wed May 21 00:00:00 EDT 2008,106852,38.618697999999995,-121.435833,SACRAMENTO,CA,95815,1,1,Residential,False,RD
2113 KIRK WAY,1020,Wed May 21 00:00:00 EDT 2008,107502,38.482215000000004,-121.492603,SACRAMENTO,CA,95822,3,1,Residential,False,WAY
4533 LOCH HAVEN WAY,1022,Wed May 21 00:00:00 EDT 2008,108750,38.672914,-121.35933999999999,SACRAMENTO,CA,95842,2,2,Residential,False,WAY
7340 HAMDEN PL,1134,Wed May 21 00:00:00 EDT 2008,110700,38.700051,-121.35127800000001,SACRAMENTO,CA,95842,2,2,Condo,False,PL
6715 6TH ST,844,Wed May 21 00:00:00 EDT 2008,113263,38.689591,-121.45223899999999,RIO LINDA,CA,95673,2,1,Residential,False,ST
6236 LONGFORD DR Unit 1,795,Wed May 21 00:00:00 EDT 2008,116250,38.679776000000004,-121.314089,CITRUS HEIGHTS,CA,95621,2,1,Condo,False,DR
250 PERALTA AVE,588,Wed May 21 00:00:00 EDT 2008,120000,38.612099,-121.469095,SACRAMENTO,CA,95833,2,1,Residential,False,AVE
113 LEEWILL AVE,1356,Wed May 21 00:00:00 EDT 2008,121630,38.689999,-121.46321999999999,RIO LINDA,CA,95673,3,2,Residential,False,AVE
6118 STONEHAND AVE,1118,Wed May 21 00:00:00 EDT 2008,122000,38.707851,-121.32070700000001,CITRUS HEIGHTS,CA,95621,3,2,Residential,False,AVE
4882 BANDALIN WAY,1329,Wed May 21 00:00:00 EDT 2008,122682,38.468173,-121.444071,SACRAMENTO,CA,95823,4,2,Residential,False,WAY
7511 OAKVALE CT,1240,Wed May 21 00:00:00 EDT 2008,123000,38.702791999999995,-121.38221000000001,NORTH HIGHLANDS,CA,95660,4,2,Residential,False,CT
9 PASTURE CT,1601,Wed May 21 00:00:00 EDT 2008,124100,38.628631,-121.488097,SACRAMENTO,CA,95834,3,2,Residential,False,CT
3729 BAINBRIDGE DR,901,Wed May 21 00:00:00 EDT 2008,125000,38.701499,-121.37621999999999,NORTH HIGHLANDS,CA,95660,3,2,Residential,False,DR
3828 BLACKFOOT WAY,1088,Wed May 21 00:00:00 EDT 2008,126640,38.709740000000004,-121.37377,ANTELOPE,CA,95843,3,2,Residential,False,WAY
4108 NORTON WAY,963,Wed May 21 00:00:00 EDT 2008,127281,38.537526,-121.478315,SACRAMENTO,CA,95820,3,1,Residential,False,WAY
1469 JANRICK AVE,1119,Wed May 21 00:00:00 EDT 2008,129000,38.476471999999994,-121.50171100000001,SACRAMENTO,CA,95832,3,2,Residential,False,AVE
9861 CULP WAY,1380,Wed May 21 00:00:00 EDT 2008,131200,38.558423,-121.32794799999999,SACRAMENTO,CA,95827,4,2,Residential,False,WAY
7825 CREEK VALLEY CIR,1248,Wed May 21 00:00:00 EDT 2008,132000,38.472122,-121.404199,SACRAMENTO,CA,95828,3,2,Residential,False,CIR
5201 LAGUNA OAKS DR Unit 140,1039,Wed May 21 00:00:00 EDT 2008,133000,38.423251,-121.44448899999999,ELK GROVE,CA,95758,2,2,Condo,False,DR
6768 MEDORA DR,1152,Wed May 21 00:00:00 EDT 2008,134555,38.691161,-121.37191999999999,NORTH HIGHLANDS,CA,95660,3,2,Residential,False,DR
3100 EXPLORER DR,1380,Wed May 21 00:00:00 EDT 2008,136500,38.566663,-121.33264399999999,SACRAMENTO,CA,95827,3,2,Residential,False,DR
7944 DOMINION WAY,1116,Wed May 21 00:00:00 EDT 2008,138750,38.713182,-121.411227,ELVERTA,CA,95626,3,2,Residential,False,WAY
5201 LAGUNA OAKS DR Unit 162,1039,Wed May 21 00:00:00 EDT 2008,141000,38.423251,-121.44448899999999,ELK GROVE,CA,95758,2,2,Condo,False,DR
3920 SHINING STAR DR,1418,Wed May 21 00:00:00 EDT 2008,146250,38.48742,-121.46245900000001,SACRAMENTO,CA,95823,3,2,Residential,False,DR
5031 CORVAIR ST,1082,Wed May 21 00:00:00 EDT 2008,147308,38.658246000000005,-121.375469,NORTH HIGHLANDS,CA,95660,3,2,Residential,False,ST
7661 NIXOS WAY,1472,Wed May 21 00:00:00 EDT 2008,148750,38.479553,-121.46331699999999,SACRAMENTO,CA,95823,4,2,Residential,False,WAY
7044 CARTHY WAY,1146,Wed May 21 00:00:00 EDT 2008,149593,38.49857,-121.420925,SACRAMENTO,CA,95828,4,2,Residential,False,WAY
2442 LARKSPUR LN,760,Wed May 21 00:00:00 EDT 2008,150000,38.58514,-121.40373600000001,SACRAMENTO,CA,95825,1,1,Condo,False,LN
4800 WESTLAKE PKWY Unit 2109,1304,Wed May 21 00:00:00 EDT 2008,152000,38.658812,-121.542345,SACRAMENTO,CA,95835,2,2,Condo,False,PKWY
2178 63RD AVE,1207,Wed May 21 00:00:00 EDT 2008,154000,38.493955,-121.48966000000001,SACRAMENTO,CA,95822,3,2,Residential,False,AVE
8718 ELK WAY,1056,Wed May 21 00:00:00 EDT 2008,156896,38.41653,-121.379653,ELK GROVE,CA,95624,3,2,Residential,False,WAY
5708 RIDGEPOINT DR,1043,Wed May 21 00:00:00 EDT 2008,161250,38.72027,-121.33155500000001,ANTELOPE,CA,95843,2,2,Residential,False,DR
7315 KOALA CT,1587,Wed May 21 00:00:00 EDT 2008,161500,38.699251000000004,-121.37141399999999,NORTH HIGHLANDS,CA,95660,4,2,Residential,False,CT
2622 ERIN DR,1120,Wed May 21 00:00:00 EDT 2008,164000,38.613765,-121.488694,SACRAMENTO,CA,95833,4,1,Residential,False,DR
8421 SUNBLAZE WAY,1580,Wed May 21 00:00:00 EDT 2008,165000,38.450542999999996,-121.432538,SACRAMENTO,CA,95823,4,2,Residential,False,WAY
7420 ALIX PKWY,1955,Wed May 21 00:00:00 EDT 2008,166357,38.489405,-121.45281100000001,SACRAMENTO,CA,95823,4,1,Residential,False,PKWY
3820 NATOMA WAY,1656,Wed May 21 00:00:00 EDT 2008,166357,38.636748,-121.42215900000001,SACRAMENTO,CA,95838,4,2,Residential,False,WAY
4431 GREEN TREE DR,1477,Wed May 21 00:00:00 EDT 2008,168000,38.499953999999995,-121.45446899999999,SACRAMENTO,CA,95823,3,2,Residential,False,DR
9417 SARA ST,1188,Wed May 21 00:00:00 EDT 2008,170000,38.415518,-121.370527,ELK GROVE,CA,95624,3,2,Residential,False,ST
8299 HALBRITE WAY,1590,Wed May 21 00:00:00 EDT 2008,173000,38.473814000000004,-121.4,SACRAMENTO,CA,95828,4,2,Residential,False,WAY
7223 KALLIE KAY LN,1463,Wed May 21 00:00:00 EDT 2008,174250,38.477553,-121.419463,SACRAMENTO,CA,95823,3,2,Residential,False,LN
8156 STEINBECK WAY,1714,Wed May 21 00:00:00 EDT 2008,174313,38.474853,-121.406326,SACRAMENTO,CA,95828,4,2,Residential,False,WAY
7957 VALLEY GREEN DR,1185,Wed May 21 00:00:00 EDT 2008,178480,38.465184,-121.434925,SACRAMENTO,CA,95823,3,2,Residential,False,DR
1122 WILD POPPY CT,1406,Wed May 21 00:00:00 EDT 2008,178760,38.287789000000004,-121.294715,GALT,CA,95632,3,2,Residential,False,CT
4520 BOMARK WAY,1943,Wed May 21 00:00:00 EDT 2008,179580,38.665724,-121.358576,SACRAMENTO,CA,95842,4,2,Multi-Family,False,WAY
9012 KIEFER BLVD,1172,Wed May 21 00:00:00 EDT 2008,181000,38.547011,-121.36621699999999,SACRAMENTO,CA,95826,3,2,Residential,False,BLVD
5332 SANDSTONE ST,1152,Wed May 21 00:00:00 EDT 2008,181872,38.662105,-121.31394499999999,CARMICHAEL,CA,95608,3,1,Residential,False,ST
5993 SAWYER CIR,1851,Wed May 21 00:00:00 EDT 2008,182587,38.4473,-121.43521799999999,SACRAMENTO,CA,95823,4,3,Residential,False,CIR
4844 CLYDEBANK WAY,1215,Wed May 21 00:00:00 EDT 2008,182716,38.714609,-121.34788700000001,ANTELOPE,CA,95843,3,2,Residential,False,WAY
306 CAMELLIA WAY,1130,Wed May 21 00:00:00 EDT 2008,182750,38.260443,-121.29786399999999,GALT,CA,95632,3,2,Residential,False,WAY
9021 MADISON AVE,1603,Wed May 21 00:00:00 EDT 2008,183200,38.664186,-121.21751100000002,ORANGEVALE,CA,95662,4,2,Residential,False,AVE
404 6TH ST,1479,Wed May 21 00:00:00 EDT 2008,188741,38.251808000000004,-121.302493,GALT,CA,95632,3,1,Residential,False,ST
8317 SUNNY CREEK WAY,1420,Wed May 21 00:00:00 EDT 2008,189000,38.459041,-121.424644,SACRAMENTO,CA,95823,3,2,Residential,False,WAY
2617 BASS CT,1280,Wed May 21 00:00:00 EDT 2008,192067,38.560767,-121.377471,SACRAMENTO,CA,95826,3,2,Residential,False,CT
7005 TIANT WAY,1586,Wed May 21 00:00:00 EDT 2008,194000,38.422810999999996,-121.423285,ELK GROVE,CA,95758,3,2,Residential,False,WAY
7895 CABER WAY,1362,Wed May 21 00:00:00 EDT 2008,194818,38.711279,-121.393449,ANTELOPE,CA,95843,3,2,Residential,False,WAY
7624 BOGEY CT,2162,Wed May 21 00:00:00 EDT 2008,195000,38.480090000000004,-121.415102,SACRAMENTO,CA,95828,4,4,Multi-Family,False,CT
6930 HAMPTON COVE WAY,1266,Wed May 21 00:00:00 EDT 2008,198000,38.44004,-121.421012,SACRAMENTO,CA,95823,3,2,Residential,False,WAY
8708 MESA BROOK WAY,1715,Wed May 21 00:00:00 EDT 2008,199500,38.44076,-121.385792,ELK GROVE,CA,95624,4,2,Residential,False,WAY
120 GRANT LN,1820,Wed May 21 00:00:00 EDT 2008,200000,38.687742,-121.17103999999999,FOLSOM,CA,95630,3,2,Residential,False,LN
5907 ELLERSLEE DR,936,Wed May 21 00:00:00 EDT 2008,200000,38.664468,-121.32683,CARMICHAEL,CA,95608,3,1,Residential,False,DR
17 SERASPI CT,0,Wed May 21 00:00:00 EDT 2008,206000,38.631481,-121.50188,SACRAMENTO,CA,95834,0,0,Residential,True,CT
170 PENHOW CIR,1511,Wed May 21 00:00:00 EDT 2008,208000,38.653439,-121.535169,SACRAMENTO,CA,95834,3,2,Residential,False,CIR
8345 STAR THISTLE WAY,1590,Wed May 21 00:00:00 EDT 2008,212864,38.454349,-121.43923899999999,SACRAMENTO,CA,95823,4,2,Residential,False,WAY
9080 FRESCA WAY,1596,Wed May 21 00:00:00 EDT 2008,221000,38.427818,-121.424026,ELK GROVE,CA,95758,4,2,Residential,False,WAY
391 NATALINO CIR,1341,Wed May 21 00:00:00 EDT 2008,221000,38.67307,-121.506373,SACRAMENTO,CA,95835,2,2,Residential,False,CIR
8373 BLACKMAN WAY,2136,Wed May 21 00:00:00 EDT 2008,223058,38.435435999999996,-121.39453600000002,ELK GROVE,CA,95624,5,3,Residential,False,WAY
9837 CORTE DORADO CT,1616,Wed May 21 00:00:00 EDT 2008,227887,38.400676000000004,-121.38101,ELK GROVE,CA,95624,4,2,Residential,False,CT
5037 J PKWY,1478,Wed May 21 00:00:00 EDT 2008,231477,38.491399,-121.443547,SACRAMENTO,CA,95823,3,2,Residential,False,PKWY
10245 LOS PALOS DR,1287,Wed May 21 00:00:00 EDT 2008,234697,38.593699,-121.31088999999999,RANCHO CORDOVA,CA,95670,3,2,Residential,False,DR
6613 NAVION DR,1277,Wed May 21 00:00:00 EDT 2008,235000,38.702855,-121.31308,CITRUS HEIGHTS,CA,95621,4,2,Residential,False,DR
2887 AZEVEDO DR,1448,Wed May 21 00:00:00 EDT 2008,236000,38.618457,-121.50943899999999,SACRAMENTO,CA,95833,4,2,Residential,False,DR
9186 KINBRACE CT,2235,Wed May 21 00:00:00 EDT 2008,236685,38.463355,-121.35893600000001,SACRAMENTO,CA,95829,4,3,Residential,False,CT
4243 MIDDLEBURY WAY,2093,Wed May 21 00:00:00 EDT 2008,237800,38.547990999999996,-121.280483,MATHER,CA,95655,3,2,Residential,False,WAY
1028 FALLON PLACE CT,1193,Wed May 21 00:00:00 EDT 2008,240122,38.693818,-121.441153,RIO LINDA,CA,95673,3,2,Residential,False,CT
4804 NORIKER DR,2163,Wed May 21 00:00:00 EDT 2008,242638,38.400974,-121.448424,ELK GROVE,CA,95757,3,2,Residential,False,DR
7713 HARVEST WOODS DR,1269,Wed May 21 00:00:00 EDT 2008,244000,38.478198,-121.41291100000001,SACRAMENTO,CA,95828,3,2,Residential,False,DR
2866 KARITSA AVE,0,Wed May 21 00:00:00 EDT 2008,244500,38.626671,-121.52597,SACRAMENTO,CA,95833,0,0,Residential,True,AVE
6913 RICHEVE WAY,958,Wed May 21 00:00:00 EDT 2008,244960,38.502519,-121.42076899999999,SACRAMENTO,CA,95828,3,1,Residential,False,WAY
8636 TEGEA WAY,2508,Wed May 21 00:00:00 EDT 2008,245918,38.443832,-121.38208700000001,ELK GROVE,CA,95624,5,3,Residential,False,WAY
5448 MAIDSTONE WAY,1305,Wed May 21 00:00:00 EDT 2008,250000,38.665395000000004,-121.29328799999999,CITRUS HEIGHTS,CA,95621,3,2,Residential,False,WAY
18 OLLIE CT,1591,Wed May 21 00:00:00 EDT 2008,250000,38.444909,-121.412345,ELK GROVE,CA,95758,4,2,Residential,False,CT
4010 ALEX LN,1326,Wed May 21 00:00:00 EDT 2008,250134,38.637028,-121.31296299999998,CARMICHAEL,CA,95608,2,2,Condo,False,LN
4901 MILLNER WAY,1843,Wed May 21 00:00:00 EDT 2008,254200,38.38692,-121.447349,ELK GROVE,CA,95757,3,2,Residential,False,WAY
4818 BRITTNEY LEE CT,1921,Wed May 21 00:00:00 EDT 2008,254200,38.653917,-121.34218,SACRAMENTO,CA,95841,4,2,Residential,False,CT
5529 LAGUNA PARK DR,2790,Wed May 21 00:00:00 EDT 2008,258000,38.42568,-121.43806200000002,ELK GROVE,CA,95758,5,3,Residential,False,DR
230 CANDELA CIR,1541,Wed May 21 00:00:00 EDT 2008,260000,38.656251,-121.547572,SACRAMENTO,CA,95835,3,2,Residential,False,CIR
4900 71ST ST,1018,Wed May 21 00:00:00 EDT 2008,260014,38.53151,-121.421089,SACRAMENTO,CA,95820,3,1,Residential,False,ST
12209 CONSERVANCY WAY,0,Wed May 21 00:00:00 EDT 2008,263500,38.553867,-121.219141,RANCHO CORDOVA,CA,95742,0,0,Residential,True,WAY
4236 NATOMAS CENTRAL DR,1672,Wed May 21 00:00:00 EDT 2008,265000,38.648879,-121.544023,SACRAMENTO,CA,95834,3,2,Condo,False,DR
5615 LUPIN LN,1380,Wed May 21 00:00:00 EDT 2008,265000,38.708315,-120.603872,POLLOCK PINES,CA,95726,3,2,Residential,False,LN
5625 JAMES WAY,975,Wed May 21 00:00:00 EDT 2008,271742,38.523947,-121.484946,SACRAMENTO,CA,95822,3,1,Residential,False,WAY
7842 LAHONTAN CT,2372,Wed May 21 00:00:00 EDT 2008,273750,38.472976,-121.318633,SACRAMENTO,CA,95829,4,3,Residential,False,CT
6850 21ST ST,1446,Wed May 21 00:00:00 EDT 2008,275086,38.502194,-121.49079499999999,SACRAMENTO,CA,95822,3,2,Residential,False,ST
2900 BLAIR RD,1284,Wed May 21 00:00:00 EDT 2008,280908,38.75485,-120.60476000000001,POLLOCK PINES,CA,95726,2,2,Residential,False,RD
2064 EXPEDITION WAY,3009,Wed May 21 00:00:00 EDT 2008,280987,38.474099,-121.490711,SACRAMENTO,CA,95832,4,3,Residential,False,WAY
2912 NORCADE CIR,3612,Wed May 21 00:00:00 EDT 2008,282400,38.559505,-121.36483899999999,SACRAMENTO,CA,95826,8,4,Multi-Family,False,CIR
9507 SEA CLIFF WAY,2056,Wed May 21 00:00:00 EDT 2008,285000,38.410992,-121.47904299999999,ELK GROVE,CA,95758,4,2,Residential,False,WAY
8882 AUTUMN GOLD CT,1993,Wed May 21 00:00:00 EDT 2008,287417,38.4439,-121.37255,ELK GROVE,CA,95624,4,2,Residential,False,CT
5322 WHITE LOTUS WAY,1857,Wed May 21 00:00:00 EDT 2008,291000,38.391538,-121.442596,ELK GROVE,CA,95757,3,2,Residential,False,WAY
1838 CASTRO WAY,1126,Wed May 21 00:00:00 EDT 2008,292024,38.556098,-121.49078700000001,SACRAMENTO,CA,95818,2,1,Residential,False,WAY
10158 CRAWFORD WAY,2213,Wed May 21 00:00:00 EDT 2008,297000,38.5703,-121.315735,SACRAMENTO,CA,95827,4,4,Multi-Family,False,WAY
7731 MASTERS ST,2494,Wed May 21 00:00:00 EDT 2008,297000,38.442031,-121.410873,ELK GROVE,CA,95758,5,3,Residential,False,ST
4925 PERCHERON DR,1843,Wed May 21 00:00:00 EDT 2008,298000,38.401540000000004,-121.447649,ELK GROVE,CA,95757,3,2,Residential,False,DR
2010 PROMONTORY POINT LN,1520,Wed May 21 00:00:00 EDT 2008,299000,38.62869,-121.261669,GOLD RIVER,CA,95670,2,2,Residential,False,LN
4727 SAVOIE WAY,2800,Wed May 21 00:00:00 EDT 2008,304037,38.658182000000004,-121.549521,SACRAMENTO,CA,95835,5,3,Residential,False,WAY
8664 MAGNOLIA HILL WAY,2309,Wed May 21 00:00:00 EDT 2008,311000,38.442352,-121.389675,ELK GROVE,CA,95624,4,2,Residential,False,WAY
9570 HARVEST ROSE WAY,2367,Wed May 21 00:00:00 EDT 2008,315537,38.555993,-121.340352,SACRAMENTO,CA,95827,5,3,Residential,False,WAY
4359 CREGAN CT,3516,Wed May 21 00:00:00 EDT 2008,320000,38.545128000000005,-121.22492199999999,RANCHO CORDOVA,CA,95742,5,4,Residential,False,CT
5337 DUSTY ROSE WAY,0,Wed May 21 00:00:00 EDT 2008,320000,38.528575,-121.2286,RANCHO CORDOVA,CA,95742,0,0,Residential,True,WAY
8929 SUTTERS GOLD DR,1914,Wed May 21 00:00:00 EDT 2008,328360,38.550847999999995,-121.370224,SACRAMENTO,CA,95826,4,3,Residential,False,DR
8025 PEERLESS AVE,1690,Wed May 21 00:00:00 EDT 2008,334150,38.71147,-121.216214,ORANGEVALE,CA,95662,2,1,Residential,False,AVE
4620 WELERA WAY,2725,Wed May 21 00:00:00 EDT 2008,335750,38.398609,-121.450148,ELK GROVE,CA,95757,3,3,Residential,False,WAY
9723 TERRAPIN CT,2354,Wed May 21 00:00:00 EDT 2008,335750,38.403492,-121.430224,ELK GROVE,CA,95757,4,3,Residential,False,CT
2115 SMOKESTACK WAY,0,Wed May 21 00:00:00 EDT 2008,339500,38.602416,-121.542965,SACRAMENTO,CA,95833,0,0,Residential,True,WAY
100 REBECCA WAY,2185,Wed May 21 00:00:00 EDT 2008,344250,38.68479,-121.149199,FOLSOM,CA,95630,3,2,Residential,False,WAY
9488 OAK VILLAGE WAY,1801,Wed May 21 00:00:00 EDT 2008,346210,38.41333,-121.404999,ELK GROVE,CA,95758,4,2,Residential,False,WAY
8495 DARTFORD DR,1961,Wed May 21 00:00:00 EDT 2008,347029,38.448507,-121.421346,SACRAMENTO,CA,95823,3,3,Residential,False,DR
6708 PONTA DO SOL WAY,3134,Wed May 21 00:00:00 EDT 2008,347650,38.380635,-121.42553799999999,ELK GROVE,CA,95757,4,2,Residential,False,WAY
4143 SEA MEADOW WAY,1915,Wed May 21 00:00:00 EDT 2008,351300,38.465340000000005,-121.45751899999999,SACRAMENTO,CA,95823,4,3,Residential,False,WAY
3020 RICHARDSON CIR,0,Wed May 21 00:00:00 EDT 2008,352000,38.691299,-121.08175200000001,EL DORADO HILLS,CA,95762,3,2,Residential,True,CIR
8082 LINDA ISLE LN,0,Wed May 21 00:00:00 EDT 2008,370000,38.4772,-121.5215,SACRAMENTO,CA,95831,0,0,Residential,True,LN
15300 MURIETA SOUTH PKWY,2734,Wed May 21 00:00:00 EDT 2008,370500,38.4874,-121.075129,RANCHO MURIETA,CA,95683,4,3,Residential,False,PKWY
11215 SHARRMONT CT,2110,Wed May 21 00:00:00 EDT 2008,372000,38.35062,-121.228349,WILTON,CA,95693,3,2,Residential,False,CT
7105 DANBERG WAY,3164,Wed May 21 00:00:00 EDT 2008,375000,38.4019,-121.42038799999999,ELK GROVE,CA,95757,5,3,Residential,False,WAY
5579 JERRY LITELL WAY,3599,Wed May 21 00:00:00 EDT 2008,381300,38.677126,-121.500519,SACRAMENTO,CA,95835,5,3,Residential,False,WAY
1050 FOXHALL WAY,2054,Wed May 21 00:00:00 EDT 2008,381942,38.509819,-121.51966100000001,SACRAMENTO,CA,95831,4,2,Residential,False,WAY
7837 ABBINGTON WAY,1830,Wed May 21 00:00:00 EDT 2008,387731,38.709872999999995,-121.339472,ANTELOPE,CA,95843,4,2,Residential,False,WAY
1300 F ST,1627,Wed May 21 00:00:00 EDT 2008,391000,38.58355,-121.48728899999999,SACRAMENTO,CA,95814,3,3,Residential,False,ST
6801 RAWLEY WAY,3440,Wed May 21 00:00:00 EDT 2008,394470,38.408351,-121.423925,ELK GROVE,CA,95757,4,3,Residential,False,WAY
1693 SHELTER COVE DR,2846,Wed May 21 00:00:00 EDT 2008,395000,38.945357,-120.908822,GREENWOOD,CA,95635,3,2,Residential,False,DR
9361 WADDELL LN,2359,Wed May 21 00:00:00 EDT 2008,400186,38.450829,-121.349928,ELK GROVE,CA,95624,4,3,Residential,False,LN
10 SEA FOAM CT,2052,Wed May 21 00:00:00 EDT 2008,415000,38.487885,-121.545947,SACRAMENTO,CA,95831,3,3,Residential,False,CT
6945 RIO TEJO WAY,3433,Wed May 21 00:00:00 EDT 2008,425000,38.385638,-121.42261599999999,ELK GROVE,CA,95757,5,3,Residential,False,WAY
4186 TULIP PARK WAY,3615,Wed May 21 00:00:00 EDT 2008,430000,38.550616999999995,-121.23526000000001,RANCHO CORDOVA,CA,95742,5,3,Residential,False,WAY
9278 DAIRY CT,0,Wed May 21 00:00:00 EDT 2008,445000,38.420338,-121.363757,ELK GROVE,CA,95624,0,0,Residential,True,CT
207 ORANGE BLOSSOM CIR Unit C,2687,Wed May 21 00:00:00 EDT 2008,460000,38.646273,-121.175322,FOLSOM,CA,95630,5,3,Residential,False,CIR
6507 RIO DE ONAR WAY,2724,Wed May 21 00:00:00 EDT 2008,461000,38.382529999999996,-121.42800700000001,ELK GROVE,CA,95757,4,3,Residential,False,WAY
7004 RAWLEY WAY,3440,Wed May 21 00:00:00 EDT 2008,489332,38.406421,-121.422081,ELK GROVE,CA,95757,4,3,Residential,False,WAY
6503 RIO DE ONAR WAY,3508,Wed May 21 00:00:00 EDT 2008,510000,38.382529999999996,-121.42803799999999,ELK GROVE,CA,95757,5,4,Residential,False,WAY
2217 APPALOOSA CT,2462,Wed May 21 00:00:00 EDT 2008,539000,38.655167,-121.09017800000001,FOLSOM,CA,95630,4,2,Residential,False,CT
868 HILDEBRAND CIR,0,Wed May 21 00:00:00 EDT 2008,585000,38.670947,-121.097727,FOLSOM,CA,95630,0,0,Residential,True,CIR
6030 PALERMO WAY,0,Wed May 21 00:00:00 EDT 2008,600000,38.672761,-121.05037800000001,EL DORADO HILLS,CA,95762,4,3,Residential,True,WAY
4070 REDONDO DR,0,Wed May 21 00:00:00 EDT 2008,606238,38.666807,-121.06483,EL DORADO HILLS,CA,95762,4,3,Residential,True,DR
4004 CRESTA WAY,2325,Wed May 21 00:00:00 EDT 2008,660000,38.591618,-121.370626,SACRAMENTO,CA,95864,3,3,Residential,False,WAY
315 JUMEL CT,0,Wed May 21 00:00:00 EDT 2008,830000,38.669931,-121.05958000000001,EL DORADO HILLS,CA,95762,6,5,Residential,True,CT
6272 LONGFORD DR Unit 1,795,Tue May 20 00:00:00 EDT 2008,69000,38.680923,-121.31394499999999,CITRUS HEIGHTS,CA,95621,2,1,Condo,False,DR
3432 Y ST,1099,Tue May 20 00:00:00 EDT 2008,70000,38.554967,-121.468046,SACRAMENTO,CA,95817,4,2,Residential,False,ST
9512 EMERALD PARK DR Unit 3,840,Tue May 20 00:00:00 EDT 2008,71000,38.40573,-121.369832,ELK GROVE,CA,95624,2,1,Condo,False,DR
3132 CLAY ST,800,Tue May 20 00:00:00 EDT 2008,78000,38.624678,-121.439203,SACRAMENTO,CA,95815,2,1,Residential,False,ST
5221 38TH AVE,746,Tue May 20 00:00:00 EDT 2008,78400,38.518044,-121.443555,SACRAMENTO,CA,95824,2,1,Residential,False,AVE
6112 HERMOSA ST,1067,Tue May 20 00:00:00 EDT 2008,80000,38.515125,-121.48041599999999,SACRAMENTO,CA,95822,3,1,Residential,False,ST
483 ARCADE BLVD,1316,Tue May 20 00:00:00 EDT 2008,89000,38.623571000000005,-121.454884,SACRAMENTO,CA,95815,4,2,Residential,False,BLVD
671 SONOMA AVE,1337,Tue May 20 00:00:00 EDT 2008,90000,38.622953,-121.450142,SACRAMENTO,CA,95815,3,1,Residential,False,AVE
5980 79TH ST,868,Tue May 20 00:00:00 EDT 2008,90000,38.518373,-121.41177900000001,SACRAMENTO,CA,95824,2,1,Residential,False,ST
7607 ELDER CREEK RD,924,Tue May 20 00:00:00 EDT 2008,92000,38.51055,-121.414768,SACRAMENTO,CA,95824,3,1,Residential,False,RD
5028 14TH AVE,610,Tue May 20 00:00:00 EDT 2008,93675,38.53942,-121.446894,SACRAMENTO,CA,95820,2,1,Residential,False,AVE
14788 NATCHEZ CT,0,Tue May 20 00:00:00 EDT 2008,97750,38.492287,-121.10003200000001,RANCHO MURIETA,CA,95683,0,0,Residential,True,CT
1069 ACACIA AVE,1220,Tue May 20 00:00:00 EDT 2008,98000,38.621998,-121.44223799999999,SACRAMENTO,CA,95815,2,1,Residential,False,AVE
5201 LAGUNA OAKS DR Unit 199,722,Tue May 20 00:00:00 EDT 2008,98000,38.423251,-121.44448899999999,ELK GROVE,CA,95758,1,1,Condo,False,DR
3847 LAS PASAS WAY,1643,Tue May 20 00:00:00 EDT 2008,99000,38.588671999999995,-121.373916,SACRAMENTO,CA,95864,3,1,Residential,False,WAY
5201 LAGUNA OAKS DR Unit 172,722,Tue May 20 00:00:00 EDT 2008,100000,38.423251,-121.44448899999999,ELK GROVE,CA,95758,1,1,Condo,False,DR
1121 CREEKSIDE WAY,1080,Tue May 20 00:00:00 EDT 2008,106716,38.241514,-121.31219899999999,GALT,CA,95632,3,1,Residential,False,WAY
5307 CABRILLO WAY,1039,Tue May 20 00:00:00 EDT 2008,111000,38.527120000000004,-121.435348,SACRAMENTO,CA,95820,3,1,Residential,False,WAY
3725 DON JULIO BLVD,1051,Tue May 20 00:00:00 EDT 2008,111000,38.67895,-121.379406,NORTH HIGHLANDS,CA,95660,3,1,Residential,False,BLVD
4803 MCCLOUD DR,967,Tue May 20 00:00:00 EDT 2008,114800,38.682279,-121.35281699999999,SACRAMENTO,CA,95842,2,2,Residential,False,DR
10542 SILVERWOOD WAY,1098,Tue May 20 00:00:00 EDT 2008,120108,38.587156,-121.295778,RANCHO CORDOVA,CA,95670,3,1,Residential,False,WAY
6318 39TH AVE,1050,Tue May 20 00:00:00 EDT 2008,123225,38.518941999999996,-121.430158,SACRAMENTO,CA,95824,3,1,Residential,False,AVE
211 MCDANIEL CIR,1110,Tue May 20 00:00:00 EDT 2008,123750,38.636565000000004,-121.46038300000001,SACRAMENTO,CA,95838,3,2,Residential,False,CIR
3800 LYNHURST WAY,888,Tue May 20 00:00:00 EDT 2008,125000,38.650445,-121.37486100000001,NORTH HIGHLANDS,CA,95660,3,1,Residential,False,WAY
6139 HERMOSA ST,1120,Tue May 20 00:00:00 EDT 2008,125000,38.514665,-121.480411,SACRAMENTO,CA,95822,3,2,Residential,False,ST
2505 RHINE WAY,1080,Tue May 20 00:00:00 EDT 2008,126000,38.717976,-121.407684,ELVERTA,CA,95626,3,2,Residential,False,WAY
3692 PAYNE WAY,957,Tue May 20 00:00:00 EDT 2008,129000,38.666540000000005,-121.378298,NORTH HIGHLANDS,CA,95660,3,1,Residential,False,WAY
604 MORRISON AVE,952,Tue May 20 00:00:00 EDT 2008,134000,38.637678,-121.452476,SACRAMENTO,CA,95838,2,1,Residential,False,AVE
648 SANTA ANA AVE,1211,Tue May 20 00:00:00 EDT 2008,135000,38.658478,-121.45040900000001,SACRAMENTO,CA,95838,3,2,Residential,False,AVE
14 ASHLEY OAKS CT,1264,Tue May 20 00:00:00 EDT 2008,135500,38.61779,-121.436765,SACRAMENTO,CA,95815,3,2,Residential,False,CT
3174 NORTHVIEW DR,1080,Tue May 20 00:00:00 EDT 2008,140000,38.623816999999995,-121.477827,SACRAMENTO,CA,95833,3,1,Residential,False,DR
840 TRANQUIL LN,1266,Tue May 20 00:00:00 EDT 2008,140000,38.270617,-121.299205,GALT,CA,95632,3,2,Residential,False,LN
5333 PRIMROSE DR Unit 19A,994,Tue May 20 00:00:00 EDT 2008,142500,38.662785,-121.27627199999999,FAIR OAKS,CA,95628,2,2,Condo,False,DR
1035 MILLET WAY,1202,Tue May 20 00:00:00 EDT 2008,143500,38.631056,-121.48508000000001,SACRAMENTO,CA,95834,3,2,Residential,False,WAY
5201 LAGUNA OAKS DR Unit 126,0,Tue May 20 00:00:00 EDT 2008,145000,38.423251,-121.44448899999999,ELK GROVE,CA,95758,0,0,Condo,True,DR
3328 22ND AVE,722,Tue May 20 00:00:00 EDT 2008,145000,38.532727,-121.47078300000001,SACRAMENTO,CA,95820,2,1,Residential,False,AVE
8001 HARTWICK WAY,1448,Tue May 20 00:00:00 EDT 2008,145000,38.488623,-121.410582,SACRAMENTO,CA,95828,4,2,Residential,False,WAY
7812 HARTWICK WAY,1188,Tue May 20 00:00:00 EDT 2008,145000,38.488611,-121.41280800000001,SACRAMENTO,CA,95828,3,2,Residential,False,WAY
4207 PAINTER WAY,1183,Tue May 20 00:00:00 EDT 2008,146000,38.692915,-121.367497,NORTH HIGHLANDS,CA,95660,4,2,Residential,False,WAY
7458 WINKLEY WAY,1320,Tue May 20 00:00:00 EDT 2008,148500,38.487444,-121.49136599999999,SACRAMENTO,CA,95822,3,1,Residential,False,WAY
8354 SUNRISE WOODS WAY,1117,Tue May 20 00:00:00 EDT 2008,149000,38.473288000000004,-121.3963,SACRAMENTO,CA,95828,3,2,Residential,False,WAY
8116 COTTONMILL CIR,1364,Tue May 20 00:00:00 EDT 2008,150000,38.482876,-121.40591200000001,SACRAMENTO,CA,95828,3,2,Residential,False,CIR
4660 CEDARWOOD WAY,1310,Tue May 20 00:00:00 EDT 2008,150000,38.484834,-121.449316,SACRAMENTO,CA,95823,4,2,Residential,False,WAY
9254 HARROGATE WAY,1006,Tue May 20 00:00:00 EDT 2008,152000,38.420138,-121.41217900000001,ELK GROVE,CA,95758,2,2,Residential,False,WAY
6716 TAREYTON WAY,1104,Tue May 20 00:00:00 EDT 2008,156000,38.693723999999996,-121.30716899999999,CITRUS HEIGHTS,CA,95621,3,2,Residential,False,WAY
2028 ROBERT WAY,810,Tue May 20 00:00:00 EDT 2008,156000,38.609982,-121.41926299999999,SACRAMENTO,CA,95825,2,1,Residential,False,WAY
9346 AIZENBERG CIR,1123,Tue May 20 00:00:00 EDT 2008,156000,38.41875,-121.370019,ELK GROVE,CA,95624,2,2,Residential,False,CIR
4524 LOCH HAVEN WAY,904,Tue May 20 00:00:00 EDT 2008,157788,38.67273,-121.359645,SACRAMENTO,CA,95842,2,1,Residential,False,WAY
7140 BLUE SPRINGS WAY,1156,Tue May 20 00:00:00 EDT 2008,161653,38.720653000000006,-121.302241,CITRUS HEIGHTS,CA,95621,3,2,Residential,False,WAY
4631 11TH AVE,1321,Tue May 20 00:00:00 EDT 2008,161829,38.541965000000005,-121.452132,SACRAMENTO,CA,95820,2,1,Residential,False,AVE
3228 BAGGAN CT,1392,Tue May 20 00:00:00 EDT 2008,165000,38.715346000000004,-121.38816299999999,ANTELOPE,CA,95843,3,2,Residential,False,CT
8515 DARTFORD DR,1439,Tue May 20 00:00:00 EDT 2008,168000,38.448288,-121.42071899999999,SACRAMENTO,CA,95823,3,2,Residential,False,DR
4500 TIPPWOOD WAY,1159,Tue May 20 00:00:00 EDT 2008,169000,38.69951,-121.35998899999998,SACRAMENTO,CA,95842,3,2,Residential,False,WAY
2460 EL ROCCO WAY,1671,Tue May 20 00:00:00 EDT 2008,175000,38.591477000000005,-121.31533999999999,RANCHO CORDOVA,CA,95670,3,2,Residential,False,WAY
8244 SUNBIRD WAY,1740,Tue May 20 00:00:00 EDT 2008,176250,38.457654,-121.431381,SACRAMENTO,CA,95823,3,2,Residential,False,WAY
5841 VALLEY VALE WAY,1265,Tue May 20 00:00:00 EDT 2008,179000,38.461283,-121.434322,SACRAMENTO,CA,95823,3,2,Residential,False,WAY
7863 CRESTLEIGH CT,1007,Tue May 20 00:00:00 EDT 2008,180000,38.710889,-121.358876,ANTELOPE,CA,95843,2,2,Residential,False,CT
7129 SPRINGMONT DR,1716,Tue May 20 00:00:00 EDT 2008,180400,38.417649,-121.420294,ELK GROVE,CA,95758,3,2,Residential,False,DR
8284 RED FOX WAY,1685,Tue May 20 00:00:00 EDT 2008,182000,38.417182000000004,-121.397231,ELK GROVE,CA,95758,4,2,Residential,False,WAY
2219 EL CANTO CIR,1829,Tue May 20 00:00:00 EDT 2008,184500,38.592383,-121.318669,RANCHO CORDOVA,CA,95670,4,2,Residential,False,CIR
8907 GEMWOOD WAY,1555,Tue May 20 00:00:00 EDT 2008,185000,38.435471,-121.44117299999999,ELK GROVE,CA,95758,3,2,Residential,False,WAY
5925 MALEVILLE AVE,1120,Tue May 20 00:00:00 EDT 2008,189000,38.666564,-121.325717,CARMICHAEL,CA,95608,4,2,Residential,False,AVE
7031 CANEVALLEY CIR,1137,Tue May 20 00:00:00 EDT 2008,194000,38.718693,-121.303619,CITRUS HEIGHTS,CA,95621,3,2,Residential,False,CIR
3949 WILDROSE WAY,1174,Tue May 20 00:00:00 EDT 2008,195000,38.543696999999995,-121.36668300000001,SACRAMENTO,CA,95826,3,1,Residential,False,WAY
4437 MITCHUM CT,1393,Tue May 20 00:00:00 EDT 2008,200000,38.704407,-121.36113,ANTELOPE,CA,95843,3,2,Residential,False,CT
2778 KAWEAH CT,0,Tue May 20 00:00:00 EDT 2008,201000,38.694052,-120.995589,CAMERON PARK,CA,95682,3,1,Residential,True,CT
1636 ALLENWOOD CIR,0,Tue May 20 00:00:00 EDT 2008,202500,38.879191999999996,-121.309477,LINCOLN,CA,95648,4,2,Residential,True,CIR
8151 QUAIL RIDGE CT,1289,Tue May 20 00:00:00 EDT 2008,205000,38.461296000000004,-121.39085800000001,SACRAMENTO,CA,95828,3,2,Residential,False,CT
4899 WIND CREEK DR,1799,Tue May 20 00:00:00 EDT 2008,205000,38.655887,-121.446119,SACRAMENTO,CA,95838,4,2,Residential,False,DR
2370 BIG CANYON CREEK RD,0,Tue May 20 00:00:00 EDT 2008,205000,38.74458,-120.79425400000001,PLACERVILLE,CA,95667,3,2,Residential,True,RD
6049 HAMBURG WAY,1953,Tue May 20 00:00:00 EDT 2008,205000,38.443253000000006,-121.431992,SACRAMENTO,CA,95823,4,3,Residential,False,WAY
4232 71ST ST,723,Tue May 20 00:00:00 EDT 2008,207000,38.536741,-121.42115,SACRAMENTO,CA,95820,2,1,Residential,False,ST
3361 BOW MAR CT,0,Tue May 20 00:00:00 EDT 2008,210000,38.69437,-120.996602,CAMERON PARK,CA,95682,2,2,Residential,True,CT
1889 COLD SPRINGS RD,948,Tue May 20 00:00:00 EDT 2008,211500,38.739774,-120.860243,PLACERVILLE,CA,95667,2,1,Residential,False,RD
5805 HIMALAYA WAY,1578,Tue May 20 00:00:00 EDT 2008,215000,38.696489,-121.32855500000001,CITRUS HEIGHTS,CA,95621,4,2,Residential,False,WAY
7944 SYLVAN OAK WAY,1317,Tue May 20 00:00:00 EDT 2008,215000,38.710388,-121.261096,CITRUS HEIGHTS,CA,95610,3,2,Residential,False,WAY
3139 SPOONWOOD WAY Unit 1,0,Tue May 20 00:00:00 EDT 2008,215500,38.626582,-121.52151,SACRAMENTO,CA,95833,0,0,Residential,True,WAY
6217 LEOLA WAY,1360,Tue May 20 00:00:00 EDT 2008,222381,38.513065999999995,-121.45190900000001,SACRAMENTO,CA,95824,3,1,Residential,False,WAY
2340 HURLEY WAY,0,Tue May 20 00:00:00 EDT 2008,225000,38.588815999999994,-121.408549,SACRAMENTO,CA,95825,0,0,Condo,True,WAY
3035 BRUNNET LN,1522,Tue May 20 00:00:00 EDT 2008,225000,38.624762,-121.522775,SACRAMENTO,CA,95833,3,2,Residential,False,LN
3025 EL PRADO WAY,1751,Tue May 20 00:00:00 EDT 2008,225000,38.606603,-121.394147,SACRAMENTO,CA,95825,4,2,Residential,False,WAY
9387 GRANITE FALLS CT,1465,Tue May 20 00:00:00 EDT 2008,225000,38.419214000000004,-121.348533,ELK GROVE,CA,95624,3,2,Residential,False,CT
9257 CALDERA WAY,1605,Tue May 20 00:00:00 EDT 2008,228000,38.558209999999995,-121.35502199999999,SACRAMENTO,CA,95826,4,2,Residential,False,WAY
441 ARLINGDALE CIR,1475,Tue May 20 00:00:00 EDT 2008,229665,38.702892999999996,-121.454949,RIO LINDA,CA,95673,4,2,Residential,False,CIR
2284 LOS ROBLES RD,1216,Tue May 20 00:00:00 EDT 2008,230000,39.008159,-121.03623,MEADOW VISTA,CA,95722,3,1,Residential,False,RD
8164 CHENIN BLANC LN,1315,Tue May 20 00:00:00 EDT 2008,230000,38.665644,-121.259969,FAIR OAKS,CA,95628,2,2,Residential,False,LN
4620 CHAMBERLIN CIR,1567,Tue May 20 00:00:00 EDT 2008,230000,38.390557,-121.449805,ELK GROVE,CA,95757,3,2,Residential,False,CIR
5340 BIRK WAY,1776,Tue May 20 00:00:00 EDT 2008,234000,38.672495,-121.515251,SACRAMENTO,CA,95835,3,2,Residential,False,WAY
51 ANJOU CIR,2187,Tue May 20 00:00:00 EDT 2008,235000,38.661658,-121.54063300000001,SACRAMENTO,CA,95835,3,2,Residential,False,CIR
2125 22ND AVE,1291,Tue May 20 00:00:00 EDT 2008,236250,38.534596,-121.493121,SACRAMENTO,CA,95822,3,1,Residential,False,AVE
611 BLOSSOM ROCK LN,0,Tue May 20 00:00:00 EDT 2008,240000,38.6457,-121.1197,FOLSOM,CA,95630,0,0,Condo,True,LN
8830 ADUR RD,0,Tue May 20 00:00:00 EDT 2008,242000,38.43742,-121.372876,ELK GROVE,CA,95624,0,0,Residential,True,RD
7344 BUTTERBALL WAY,1503,Tue May 20 00:00:00 EDT 2008,245000,38.699489,-121.361828,SACRAMENTO,CA,95842,3,2,Residential,False,WAY
8219 GWINHURST CIR,2491,Tue May 20 00:00:00 EDT 2008,245000,38.459711,-121.38428300000001,SACRAMENTO,CA,95828,4,3,Residential,False,CIR
3240 S ST,1269,Tue May 20 00:00:00 EDT 2008,245000,38.562296,-121.46748899999999,SACRAMENTO,CA,95816,2,1,Residential,False,ST
221 PICASSO CIR,0,Tue May 20 00:00:00 EDT 2008,250000,38.676658,-121.52812800000001,SACRAMENTO,CA,95835,0,0,Residential,True,CIR
5706 GREENACRES WAY,1176,Tue May 20 00:00:00 EDT 2008,250000,38.669882,-121.21353300000001,ORANGEVALE,CA,95662,3,2,Residential,False,WAY
6900 LONICERA DR,1456,Tue May 20 00:00:00 EDT 2008,250000,38.692199,-121.250975,ORANGEVALE,CA,95662,4,2,Residential,False,DR
419 DAWNRIDGE RD,1498,Tue May 20 00:00:00 EDT 2008,250000,38.725283000000005,-121.297953,ROSEVILLE,CA,95678,3,2,Residential,False,RD
5312 MARBURY WAY,1574,Tue May 20 00:00:00 EDT 2008,255000,38.710221000000004,-121.341651,ANTELOPE,CA,95843,3,2,Residential,False,WAY
6344 BONHAM CIR,2085,Tue May 20 00:00:00 EDT 2008,256054,38.682358,-121.272876,CITRUS HEIGHTS,CA,95610,5,4,Multi-Family,False,CIR
8207 YORKTON WAY,2170,Tue May 20 00:00:00 EDT 2008,257729,38.45967,-121.36046100000002,SACRAMENTO,CA,95829,3,2,Residential,False,WAY
7922 MANSELL WAY,1595,Tue May 20 00:00:00 EDT 2008,260000,38.409634000000004,-121.41078700000001,ELK GROVE,CA,95758,4,2,Residential,False,WAY
5712 MELBURY CIR,1567,Tue May 20 00:00:00 EDT 2008,261000,38.705849,-121.334701,ANTELOPE,CA,95843,3,2,Residential,False,CIR
632 NEWBRIDGE LN,0,Tue May 20 00:00:00 EDT 2008,261800,38.879084000000006,-121.29858600000001,LINCOLN,CA,95648,4,2,Residential,True,LN
1570 GLIDDEN AVE,1253,Tue May 20 00:00:00 EDT 2008,264469,38.482704,-121.500433,SACRAMENTO,CA,95822,4,2,Residential,False,AVE
8108 FILIFERA WAY,1768,Tue May 20 00:00:00 EDT 2008,265000,38.717042,-121.35468,ANTELOPE,CA,95843,4,3,Residential,False,WAY
230 BANKSIDE WAY,0,Tue May 20 00:00:00 EDT 2008,270000,38.676937,-121.52924399999999,SACRAMENTO,CA,95835,0,0,Residential,True,WAY
5342 CALABRIA WAY,2030,Tue May 20 00:00:00 EDT 2008,270000,38.671807,-121.498274,SACRAMENTO,CA,95835,4,3,Residential,False,WAY
47 NAPONEE CT,1531,Tue May 20 00:00:00 EDT 2008,270000,38.665704,-121.529096,SACRAMENTO,CA,95835,3,2,Residential,False,CT
4236 ADRIATIC SEA WAY,0,Tue May 20 00:00:00 EDT 2008,270000,38.647960999999995,-121.54316200000001,SACRAMENTO,CA,95834,0,0,Residential,True,WAY
8864 REMBRANT CT,1653,Tue May 20 00:00:00 EDT 2008,275000,38.435288,-121.375703,ELK GROVE,CA,95624,4,3,Residential,False,CT
9455 SEA CLIFF WAY,2056,Tue May 20 00:00:00 EDT 2008,275000,38.411522,-121.481406,ELK GROVE,CA,95758,4,2,Residential,False,WAY
9720 LITTLE HARBOR WAY,2494,Tue May 20 00:00:00 EDT 2008,280000,38.404934000000004,-121.352405,ELK GROVE,CA,95624,4,3,Residential,False,WAY
8806 PHOENIX AVE,1450,Tue May 20 00:00:00 EDT 2008,286013,38.660322,-121.230101,FAIR OAKS,CA,95628,3,2,Residential,False,AVE
3578 LOGGERHEAD WAY,2169,Tue May 20 00:00:00 EDT 2008,292000,38.633028,-121.52675500000001,SACRAMENTO,CA,95834,4,2,Residential,False,WAY
1416 LOCKHART WAY,1440,Tue May 20 00:00:00 EDT 2008,292000,38.752399,-121.33032800000001,ROSEVILLE,CA,95747,3,2,Residential,False,WAY
5413 BUENA VENTURA WAY,1527,Tue May 20 00:00:00 EDT 2008,293993,38.664552,-121.25593700000002,FAIR OAKS,CA,95628,3,2,Residential,False,WAY
37 WHITE BIRCH CT,1401,Tue May 20 00:00:00 EDT 2008,294000,38.776327,-121.28451399999999,ROSEVILLE,CA,95678,3,2,Residential,False,CT
405 MARLIN SPIKE WAY,1411,Tue May 20 00:00:00 EDT 2008,296769,38.65783,-121.456842,SACRAMENTO,CA,95838,3,2,Residential,False,WAY
1102 CHESLEY LN,0,Tue May 20 00:00:00 EDT 2008,297500,38.864864000000004,-121.313988,LINCOLN,CA,95648,4,4,Residential,True,LN
11281 STANFORD COURT LN Unit 604,0,Tue May 20 00:00:00 EDT 2008,300000,38.625289,-121.26028600000001,GOLD RIVER,CA,95670,0,0,Condo,True,LN
7320 6TH ST,1284,Tue May 20 00:00:00 EDT 2008,300000,38.700553,-121.452223,RIO LINDA,CA,95673,3,1,Residential,False,ST
993 MANTON CT,2307,Tue May 20 00:00:00 EDT 2008,300000,38.272942,-121.289148,GALT,CA,95632,4,3,Residential,False,CT
4487 PANORAMA DR,1329,Tue May 20 00:00:00 EDT 2008,300000,38.694559000000005,-120.848157,PLACERVILLE,CA,95667,3,2,Residential,False,DR
5651 OVERLEAF WAY,1910,Tue May 20 00:00:00 EDT 2008,300500,38.677454,-121.49479099999999,SACRAMENTO,CA,95835,4,2,Residential,False,WAY
2015 PROMONTORY POINT LN,1981,Tue May 20 00:00:00 EDT 2008,305000,38.628732,-121.261149,GOLD RIVER,CA,95670,3,2,Residential,False,LN
3224 PARKHAM DR,0,Tue May 20 00:00:00 EDT 2008,306500,38.772771,-121.364877,ROSEVILLE,CA,95747,0,0,Residential,True,DR
15 VANESSA PL,0,Tue May 20 00:00:00 EDT 2008,312500,38.668692,-121.54548999999999,SACRAMENTO,CA,95835,0,0,Residential,True,PL
1312 RENISON LN,0,Tue May 20 00:00:00 EDT 2008,315000,38.866409000000004,-121.308485,LINCOLN,CA,95648,5,3,Residential,True,LN
8 RIVER RAFT CT,2205,Tue May 20 00:00:00 EDT 2008,319789,38.447353,-121.434969,SACRAMENTO,CA,95823,4,2,Residential,False,CT
2251 LAMPLIGHT LN,1449,Tue May 20 00:00:00 EDT 2008,330000,38.849924,-121.275729,LINCOLN,CA,95648,2,2,Residential,False,LN
106 FARHAM DR,1258,Tue May 20 00:00:00 EDT 2008,330000,38.667834,-121.168578,FOLSOM,CA,95630,3,2,Residential,False,DR
5405 NECTAR CIR,2575,Tue May 20 00:00:00 EDT 2008,331000,38.387014,-121.44096699999999,ELK GROVE,CA,95757,3,2,Residential,False,CIR
5411 10TH AVE,539,Tue May 20 00:00:00 EDT 2008,334000,38.542727,-121.442449,SACRAMENTO,CA,95820,2,1,Residential,False,AVE
3512 RAINSONG CIR,2208,Tue May 20 00:00:00 EDT 2008,336000,38.573488,-121.28280900000001,RANCHO CORDOVA,CA,95670,4,3,Residential,False,CIR
1106 55TH ST,1108,Tue May 20 00:00:00 EDT 2008,339000,38.563805,-121.43639499999999,SACRAMENTO,CA,95819,3,1,Residential,False,ST
411 ILLSLEY WAY,1595,Tue May 20 00:00:00 EDT 2008,339000,38.652002,-121.129504,FOLSOM,CA,95630,4,2,Residential,False,WAY
796 BUTTERCUP CIR,2159,Tue May 20 00:00:00 EDT 2008,345000,38.279581,-121.30082800000001,GALT,CA,95632,4,2,Residential,False,CIR
1230 SANDRA CIR,2295,Tue May 20 00:00:00 EDT 2008,350000,38.738141,-120.784145,PLACERVILLE,CA,95667,4,3,Residential,False,CIR
318 ANACAPA DR,1838,Tue May 20 00:00:00 EDT 2008,356000,38.782094,-121.297133,ROSEVILLE,CA,95678,3,2,Residential,False,DR
3975 SHINING STAR DR,1900,Tue May 20 00:00:00 EDT 2008,361745,38.487409,-121.461413,SACRAMENTO,CA,95823,4,2,Residential,False,DR
1620 BASLER ST,1718,Tue May 20 00:00:00 EDT 2008,361948,38.591822,-121.47864399999999,SACRAMENTO,CA,95811,4,2,Residential,False,ST
9688 NATURE TRAIL WAY,3389,Tue May 20 00:00:00 EDT 2008,370000,38.405224,-121.479275,ELK GROVE,CA,95757,5,3,Residential,False,WAY
5924 TANUS CIR,0,Tue May 20 00:00:00 EDT 2008,380000,38.778690999999995,-121.204292,ROCKLIN,CA,95677,4,2,Residential,True,CIR
9629 CEDAR OAK WAY,3260,Tue May 20 00:00:00 EDT 2008,385000,38.405527,-121.43174599999999,ELK GROVE,CA,95757,5,4,Residential,False,WAY
3429 FERNBROOK CT,2016,Tue May 20 00:00:00 EDT 2008,399000,38.664225,-121.007173,CAMERON PARK,CA,95682,3,2,Residential,False,CT
2121 HANNAH WAY,2607,Tue May 20 00:00:00 EDT 2008,402000,38.805749,-121.28093100000001,ROCKLIN,CA,95765,4,2,Residential,False,WAY
10104 ANNIE ST,2724,Tue May 20 00:00:00 EDT 2008,406026,38.390465,-121.44347900000001,ELK GROVE,CA,95757,4,3,Residential,False,ST
1092 MAUGHAM CT,3746,Tue May 20 00:00:00 EDT 2008,420000,38.271646000000004,-121.28684799999999,GALT,CA,95632,5,4,Residential,False,CT
5404 ALMOND FALLS WAY,0,Tue May 20 00:00:00 EDT 2008,425000,38.527502,-121.233492,RANCHO CORDOVA,CA,95742,0,0,Residential,True,WAY
6306 CONEJO,3192,Tue May 20 00:00:00 EDT 2008,425000,38.512602,-121.08723300000001,RANCHO MURIETA,CA,95683,4,2,Residential,False,Unknown
14 CASA VATONI PL,0,Tue May 20 00:00:00 EDT 2008,433500,38.650221,-121.551704,SACRAMENTO,CA,95834,0,0,Residential,True,PL
1456 EAGLESFIELD LN,0,Tue May 20 00:00:00 EDT 2008,436746,38.857634999999995,-121.311375,LINCOLN,CA,95648,4,3,Residential,True,LN
4100 BOTHWELL CIR,0,Tue May 20 00:00:00 EDT 2008,438700,38.679136,-121.034329,EL DORADO HILLS,CA,95762,5,3,Residential,True,CIR
427 21ST ST,1247,Tue May 20 00:00:00 EDT 2008,445000,38.582603999999996,-121.47576000000001,SACRAMENTO,CA,95811,2,1,Residential,False,ST
1044 GALSTON DR,2581,Tue May 20 00:00:00 EDT 2008,450000,38.676306,-121.09953999999999,FOLSOM,CA,95630,4,2,Residential,False,DR
4440 SYCAMORE AVE,2068,Tue May 20 00:00:00 EDT 2008,460000,38.646374,-121.35365800000001,SACRAMENTO,CA,95841,3,1,Residential,False,AVE
1032 SOUZA DR,0,Tue May 20 00:00:00 EDT 2008,460000,38.668239,-121.06443700000001,EL DORADO HILLS,CA,95762,3,2,Residential,True,DR
9760 LAZULITE CT,3992,Tue May 20 00:00:00 EDT 2008,460000,38.403609,-121.33554099999999,ELK GROVE,CA,95624,4,3,Residential,False,CT
241 LANFRANCO CIR,3397,Tue May 20 00:00:00 EDT 2008,465000,38.665696000000004,-121.54943700000001,SACRAMENTO,CA,95835,4,4,Residential,False,CIR
5559 NORTHBOROUGH DR,3881,Tue May 20 00:00:00 EDT 2008,471750,38.677225,-121.519687,SACRAMENTO,CA,95835,5,3,Residential,False,DR
2125 BIG SKY DR,0,Tue May 20 00:00:00 EDT 2008,480000,38.801637,-121.278798,ROCKLIN,CA,95765,5,3,Residential,True,DR
2109 HAMLET PL,1598,Tue May 20 00:00:00 EDT 2008,484000,38.602754,-121.329326,CARMICHAEL,CA,95608,2,2,Residential,False,PL
9970 STATE HIGHWAY 193,1929,Tue May 20 00:00:00 EDT 2008,485000,38.787877,-120.816676,PLACERVILLE,CA,95667,4,3,Residential,False,HWY
2901 PINTAIL WAY,3070,Tue May 20 00:00:00 EDT 2008,495000,38.398488,-121.473424,ELK GROVE,CA,95757,4,3,Residential,False,WAY
201 FIRESTONE DR,0,Tue May 20 00:00:00 EDT 2008,500500,38.770153,-121.30003899999998,ROSEVILLE,CA,95678,0,0,Residential,True,DR
1740 HIGH ST,0,Tue May 20 00:00:00 EDT 2008,504000,38.891935,-121.08434,AUBURN,CA,95603,3,3,Residential,True,ST
2733 DANA LOOP,0,Tue May 20 00:00:00 EDT 2008,541000,38.628459,-121.05507800000001,EL DORADO HILLS,CA,95762,0,0,Residential,True,LOOP
9741 SADDLEBRED CT,0,Tue May 20 00:00:00 EDT 2008,560000,38.408840999999995,-121.198039,WILTON,CA,95693,0,0,Residential,True,CT
7756 TIGERWOODS DR,3984,Tue May 20 00:00:00 EDT 2008,572500,38.47643,-121.309243,SACRAMENTO,CA,95829,5,3,Residential,False,DR
5709 RIVER OAK WAY,2222,Tue May 20 00:00:00 EDT 2008,582000,38.602461,-121.330979,CARMICHAEL,CA,95608,4,2,Residential,False,WAY
2981 WRINGER DR,3838,Tue May 20 00:00:00 EDT 2008,613401,38.735372999999996,-121.22707199999999,ROSEVILLE,CA,95661,4,3,Residential,False,DR
8616 ROCKPORTE CT,0,Tue May 20 00:00:00 EDT 2008,614000,38.742118,-121.359909,ROSEVILLE,CA,95747,4,2,Residential,True,CT
4128 HILL ST,2846,Tue May 20 00:00:00 EDT 2008,680000,38.64167,-121.26209899999999,FAIR OAKS,CA,95628,5,5,Residential,False,ST
1409 47TH ST,2484,Tue May 20 00:00:00 EDT 2008,699000,38.563244,-121.446876,SACRAMENTO,CA,95819,5,2,Residential,False,ST
3935 EL MONTE DR,1624,Tue May 20 00:00:00 EDT 2008,839000,38.813337,-121.133348,LOOMIS,CA,95650,4,4,Residential,False,DR
5840 WALERGA RD,840,Mon May 19 00:00:00 EDT 2008,40000,38.673678,-121.35747099999999,SACRAMENTO,CA,95842,2,1,Condo,False,RD
923 FULTON AVE,484,Mon May 19 00:00:00 EDT 2008,48000,38.582279,-121.401482,SACRAMENTO,CA,95825,1,1,Condo,False,AVE
261 REDONDO AVE,970,Mon May 19 00:00:00 EDT 2008,61500,38.620684999999995,-121.46053899999998,SACRAMENTO,CA,95815,3,1,Residential,False,AVE
4030 BROADWAY,623,Mon May 19 00:00:00 EDT 2008,62050,38.546797999999995,-121.46003799999998,SACRAMENTO,CA,95817,2,1,Residential,False,BROADWAY
3660 22ND AVE,932,Mon May 19 00:00:00 EDT 2008,65000,38.532718,-121.46746999999999,SACRAMENTO,CA,95820,2,1,Residential,False,AVE
3924 HIGH ST,796,Mon May 19 00:00:00 EDT 2008,65000,38.638797,-121.43504899999999,SACRAMENTO,CA,95838,2,1,Residential,False,ST
4734 14TH AVE,834,Mon May 19 00:00:00 EDT 2008,68000,38.539446999999996,-121.45085800000001,SACRAMENTO,CA,95820,2,1,Residential,False,AVE
4734 14TH AVE,834,Mon May 19 00:00:00 EDT 2008,68000,38.539446999999996,-121.45085800000001,SACRAMENTO,CA,95820,2,1,Residential,False,AVE
5050 RHODE ISLAND DR Unit 4,924,Mon May 19 00:00:00 EDT 2008,77000,38.658739000000004,-121.33356100000002,SACRAMENTO,CA,95841,2,1,Condo,False,DR
4513 GREENHOLME DR,795,Mon May 19 00:00:00 EDT 2008,82732,38.669104,-121.359008,SACRAMENTO,CA,95842,2,1,Condo,False,DR
3845 ELM ST,1250,Mon May 19 00:00:00 EDT 2008,84000,38.637337,-121.43283500000001,SACRAMENTO,CA,95838,3,1,Residential,False,ST
3908 17TH AVE,984,Mon May 19 00:00:00 EDT 2008,84675,38.537279999999996,-121.463531,SACRAMENTO,CA,95820,2,1,Residential,False,AVE
7109 CHANDLER DR,1013,Mon May 19 00:00:00 EDT 2008,85000,38.497237,-121.42418700000002,SACRAMENTO,CA,95828,3,1,Residential,False,DR
7541 SKELTON WAY,1012,Mon May 19 00:00:00 EDT 2008,90000,38.484274,-121.488851,SACRAMENTO,CA,95822,3,1,Residential,False,WAY
9058 MONTOYA ST,795,Mon May 19 00:00:00 EDT 2008,90000,38.559144,-121.36838700000001,SACRAMENTO,CA,95826,2,1,Condo,False,ST
1016 CONGRESS AVE,918,Mon May 19 00:00:00 EDT 2008,91000,38.630151,-121.44278899999999,SACRAMENTO,CA,95838,2,2,Residential,False,AVE
540 MORRISON AVE,1082,Mon May 19 00:00:00 EDT 2008,95000,38.637704,-121.453946,SACRAMENTO,CA,95838,3,1,Residential,False,AVE
5303 JERRETT WAY,964,Mon May 19 00:00:00 EDT 2008,97500,38.663282,-121.35963100000001,SACRAMENTO,CA,95842,2,1,Residential,False,WAY
2820 DEL PASO BLVD,1404,Mon May 19 00:00:00 EDT 2008,100000,38.617717999999996,-121.44008899999999,SACRAMENTO,CA,95815,4,2,Multi-Family,False,BLVD
3715 TALLYHO DR Unit 78HIGH,625,Mon May 19 00:00:00 EDT 2008,100000,38.544627,-121.35796,SACRAMENTO,CA,95826,1,1,Condo,False,DR
6013 ROWAN WAY,888,Mon May 19 00:00:00 EDT 2008,101000,38.675893,-121.2963,CITRUS HEIGHTS,CA,95621,2,1,Residential,False,WAY
2987 PONDEROSA LN,1120,Mon May 19 00:00:00 EDT 2008,102750,38.622243,-121.45786299999999,SACRAMENTO,CA,95815,4,2,Residential,False,LN
3732 LANKERSHIM WAY,1331,Mon May 19 00:00:00 EDT 2008,112500,38.68972,-121.378399,NORTH HIGHLANDS,CA,95660,3,1,Residential,False,WAY
2216 DUNLAP DR,1014,Mon May 19 00:00:00 EDT 2008,113000,38.623738,-121.41305,SACRAMENTO,CA,95821,3,1,Residential,False,DR
3503 21ST AVE,1448,Mon May 19 00:00:00 EDT 2008,114000,38.533609999999996,-121.46930800000001,SACRAMENTO,CA,95820,4,2,Residential,False,AVE
523 EXCHANGE ST,966,Mon May 19 00:00:00 EDT 2008,114000,38.659414,-121.45408,SACRAMENTO,CA,95838,3,1,Residential,False,ST
8101 PORT ROYALE WAY,779,Mon May 19 00:00:00 EDT 2008,114750,38.463929,-121.438667,SACRAMENTO,CA,95823,2,1,Residential,False,WAY
8020 WALERGA RD,836,Mon May 19 00:00:00 EDT 2008,115000,38.71607,-121.36446799999999,ANTELOPE,CA,95843,2,2,Condo,False,RD
167 VALLEY OAK DR,1100,Mon May 19 00:00:00 EDT 2008,115000,38.732428999999996,-121.288069,ROSEVILLE,CA,95678,2,2,Condo,False,DR
7876 BURLINGTON WAY,1174,Mon May 19 00:00:00 EDT 2008,116100,38.470093,-121.468347,SACRAMENTO,CA,95832,3,1,Residential,False,WAY
3726 JONKO AVE,1207,Mon May 19 00:00:00 EDT 2008,119250,38.656131,-121.377265,NORTH HIGHLANDS,CA,95660,3,2,Residential,False,AVE
7342 GIGI PL,1995,Mon May 19 00:00:00 EDT 2008,120000,38.490704,-121.410176,SACRAMENTO,CA,95828,4,4,Multi-Family,False,PL
2610 PHYLLIS AVE,804,Mon May 19 00:00:00 EDT 2008,120000,38.53105,-121.479574,SACRAMENTO,CA,95820,2,1,Residential,False,AVE
4200 COMMERCE WAY Unit 711,958,Mon May 19 00:00:00 EDT 2008,120000,38.647523,-121.52321699999999,SACRAMENTO,CA,95834,2,2,Condo,False,WAY
4621 COUNTRY SCENE WAY,1366,Mon May 19 00:00:00 EDT 2008,120108,38.470187,-121.448149,SACRAMENTO,CA,95823,3,2,Residential,False,WAY
5380 VILLAGE WOOD DR,901,Mon May 19 00:00:00 EDT 2008,121500,38.454949,-121.440578,SACRAMENTO,CA,95823,2,2,Residential,False,DR
2621 EVERGREEN ST,696,Mon May 19 00:00:00 EDT 2008,121725,38.613103,-121.44408500000002,SACRAMENTO,CA,95815,3,1,Residential,False,ST
201 CARLO CT,1080,Mon May 19 00:00:00 EDT 2008,122000,38.24227,-121.31031999999999,GALT,CA,95632,3,2,Residential,False,CT
6743 21ST ST,1104,Mon May 19 00:00:00 EDT 2008,123000,38.50372,-121.49065700000001,SACRAMENTO,CA,95822,3,2,Residential,False,ST
3128 VIA GRANDE,972,Mon May 19 00:00:00 EDT 2008,125000,38.598321,-121.39161000000001,SACRAMENTO,CA,95825,2,1,Residential,False,GRANDE
2847 BELGRADE WAY,1390,Mon May 19 00:00:00 EDT 2008,125573,38.617173,-121.482541,SACRAMENTO,CA,95833,4,2,Residential,False,WAY
7741 MILLDALE CIR,1354,Mon May 19 00:00:00 EDT 2008,126714,38.705834,-121.43919,ELVERTA,CA,95626,4,2,Residential,False,CIR
9013 CASALS ST,795,Mon May 19 00:00:00 EDT 2008,126960,38.557045,-121.37167,SACRAMENTO,CA,95826,2,1,Condo,False,ST
227 MAHAN CT Unit 1,780,Mon May 19 00:00:00 EDT 2008,127000,38.749722999999996,-121.27008000000001,ROSEVILLE,CA,95678,2,1,Condo,False,CT
7349 FLETCHER FARM DR,1587,Mon May 19 00:00:00 EDT 2008,127500,38.49069,-121.38261899999999,SACRAMENTO,CA,95828,4,2,Residential,False,DR
7226 LARCHMONT DR,1209,Mon May 19 00:00:00 EDT 2008,130000,38.699269,-121.37633400000001,NORTH HIGHLANDS,CA,95660,3,2,Residential,False,DR
4114 35TH AVE,1139,Mon May 19 00:00:00 EDT 2008,133105,38.520941,-121.459355,SACRAMENTO,CA,95824,2,1,Residential,False,AVE
617 M ST,1690,Mon May 19 00:00:00 EDT 2008,136500,38.691103999999996,-121.45183200000001,RIO LINDA,CA,95673,2,2,Residential,False,ST
7032 FAIR OAKS BLVD,1245,Mon May 19 00:00:00 EDT 2008,139500,38.628563,-121.32829699999999,CARMICHAEL,CA,95608,3,2,Condo,False,BLVD
2421 SANTINA WAY,1416,Mon May 19 00:00:00 EDT 2008,140000,38.71865,-121.40776299999999,ELVERTA,CA,95626,3,2,Residential,False,WAY
2368 CRAIG AVE,1300,Mon May 19 00:00:00 EDT 2008,140800,38.47807,-121.48114,SACRAMENTO,CA,95832,3,2,Residential,False,AVE
2123 AMANDA WAY,1120,Mon May 19 00:00:00 EDT 2008,145000,38.484896,-121.486948,SACRAMENTO,CA,95822,3,2,Residential,False,WAY
7620 DARLA WAY,1590,Mon May 19 00:00:00 EDT 2008,147000,38.478502,-121.403517,SACRAMENTO,CA,95828,4,2,Residential,False,WAY
8344 FIELDPOPPY CIR,1407,Mon May 19 00:00:00 EDT 2008,149600,38.479083,-121.400702,SACRAMENTO,CA,95828,3,2,Residential,False,CIR
3624 20TH AVE,1516,Mon May 19 00:00:00 EDT 2008,150000,38.534508,-121.46790700000001,SACRAMENTO,CA,95820,5,2,Residential,False,AVE
10001 WOODCREEK OAKS BLVD Unit 1415,0,Mon May 19 00:00:00 EDT 2008,150000,38.795528999999995,-121.328819,ROSEVILLE,CA,95747,2,2,Condo,True,BLVD
2848 PROVO WAY,1646,Mon May 19 00:00:00 EDT 2008,150000,38.489759,-121.474754,SACRAMENTO,CA,95822,3,2,Residential,False,WAY
6045 EHRHARDT AVE,1676,Mon May 19 00:00:00 EDT 2008,155000,38.457157,-121.43306499999998,SACRAMENTO,CA,95823,3,2,Residential,False,AVE
1223 LAMBERTON CIR,1370,Mon May 19 00:00:00 EDT 2008,155435,38.646677000000004,-121.437573,SACRAMENTO,CA,95838,3,2,Residential,False,CIR
1223 LAMBERTON CIR,1370,Mon May 19 00:00:00 EDT 2008,155500,38.646677000000004,-121.437573,SACRAMENTO,CA,95838,3,2,Residential,False,CIR
6000 BIRCHGLADE WAY,1351,Mon May 19 00:00:00 EDT 2008,158000,38.70166,-121.323249,CITRUS HEIGHTS,CA,95621,4,2,Residential,False,WAY
7204 THOMAS DR,1152,Mon May 19 00:00:00 EDT 2008,158000,38.697897999999995,-121.37768700000001,NORTH HIGHLANDS,CA,95660,3,2,Residential,False,DR
8363 LANGTREE WAY,1452,Mon May 19 00:00:00 EDT 2008,160000,38.453559999999996,-121.43595900000001,SACRAMENTO,CA,95823,3,2,Residential,False,WAY
1675 VERNON ST Unit 8,990,Mon May 19 00:00:00 EDT 2008,160000,38.734136,-121.29963899999998,ROSEVILLE,CA,95678,2,1,Residential,False,ST
6632 IBEX WOODS CT,1162,Mon May 19 00:00:00 EDT 2008,164000,38.720867999999996,-121.309855,CITRUS HEIGHTS,CA,95621,2,2,Residential,False,CT
117 EVCAR WAY,1182,Mon May 19 00:00:00 EDT 2008,164000,38.687659000000004,-121.4633,RIO LINDA,CA,95673,3,2,Residential,False,WAY
6485 LAGUNA MIRAGE LN,1112,Mon May 19 00:00:00 EDT 2008,165000,38.42465,-121.43013700000002,ELK GROVE,CA,95758,2,2,Residential,False,LN
746 MOOSE CREEK WAY,1100,Mon May 19 00:00:00 EDT 2008,167000,38.283085,-121.302071,GALT,CA,95632,3,2,Residential,False,WAY
8306 CURLEW CT,1280,Mon May 19 00:00:00 EDT 2008,167293,38.715781,-121.298519,CITRUS HEIGHTS,CA,95621,4,2,Residential,False,CT
8306 CURLEW CT,1280,Mon May 19 00:00:00 EDT 2008,167293,38.715781,-121.298519,CITRUS HEIGHTS,CA,95621,4,2,Residential,False,CT
5217 ARGO WAY,1039,Mon May 19 00:00:00 EDT 2008,168000,38.52774,-121.433669,SACRAMENTO,CA,95820,3,1,Residential,False,WAY
7108 HEATHER TREE DR,1159,Mon May 19 00:00:00 EDT 2008,170000,38.695677,-121.36022,SACRAMENTO,CA,95842,3,2,Residential,False,DR
2956 DAVENPORT WAY,1917,Mon May 19 00:00:00 EDT 2008,170000,38.620687,-121.482619,SACRAMENTO,CA,95833,4,2,Residential,False,WAY
10062 LINCOLN VILLAGE DR,1520,Mon May 19 00:00:00 EDT 2008,170000,38.564,-121.32002299999999,SACRAMENTO,CA,95827,3,2,Residential,False,DR
332 PALIN AVE,1204,Mon May 19 00:00:00 EDT 2008,174000,38.260467,-121.302636,GALT,CA,95632,3,2,Residential,False,AVE
4649 FREEWAY CIR,1120,Mon May 19 00:00:00 EDT 2008,178000,38.658734,-121.357196,SACRAMENTO,CA,95841,3,2,Residential,False,CIR
8593 DERLIN WAY,1436,Mon May 19 00:00:00 EDT 2008,180000,38.447585,-121.426627,SACRAMENTO,CA,95823,3,2,Residential,False,WAY
9273 PREMIER WAY,1451,Mon May 19 00:00:00 EDT 2008,180000,38.55992,-121.352539,SACRAMENTO,CA,95826,3,2,Residential,False,WAY
8032 DUSENBERG CT,1638,Mon May 19 00:00:00 EDT 2008,180000,38.466499,-121.381119,SACRAMENTO,CA,95828,4,2,Residential,False,CT
7110 STELLA LN Unit 15,1000,Mon May 19 00:00:00 EDT 2008,182000,38.637396,-121.300055,CARMICHAEL,CA,95608,2,2,Condo,False,LN
1786 PIEDMONT WAY,1152,Mon May 19 00:00:00 EDT 2008,188325,38.72748,-121.25653700000001,ROSEVILLE,CA,95661,3,1,Residential,False,WAY
1347 HIDALGO CIR,1154,Mon May 19 00:00:00 EDT 2008,191500,38.747878,-121.311279,ROSEVILLE,CA,95747,3,2,Residential,False,CIR
212 CAPPUCINO WAY,1353,Mon May 19 00:00:00 EDT 2008,192000,38.657810999999995,-121.465327,SACRAMENTO,CA,95838,3,2,Residential,False,WAY
5938 WOODBRIAR WAY,1329,Mon May 19 00:00:00 EDT 2008,192700,38.706152,-121.325399,CITRUS HEIGHTS,CA,95621,3,2,Residential,False,WAY
3801 WILDROSE WAY,1356,Mon May 19 00:00:00 EDT 2008,195000,38.544368,-121.369979,SACRAMENTO,CA,95826,3,1,Residential,False,WAY
508 SAMUEL WAY,1505,Mon May 19 00:00:00 EDT 2008,197654,38.645689000000004,-121.452766,SACRAMENTO,CA,95838,3,2,Residential,False,WAY
6128 CARL SANDBURG CIR,1009,Mon May 19 00:00:00 EDT 2008,198000,38.681540999999996,-121.355616,SACRAMENTO,CA,95842,3,1,Residential,False,CIR
1 KENNELFORD CIR,1144,Mon May 19 00:00:00 EDT 2008,200345,38.46452,-121.42760600000001,SACRAMENTO,CA,95823,3,2,Residential,False,CIR
909 SINGINGWOOD RD,930,Mon May 19 00:00:00 EDT 2008,203000,38.581471,-121.38838999999999,SACRAMENTO,CA,95864,2,1,Residential,False,RD
6671 FOXWOOD CT,1766,Mon May 19 00:00:00 EDT 2008,207000,38.687943,-121.328883,SACRAMENTO,CA,95841,4,2,Residential,False,CT
8165 AYN RAND CT,1940,Mon May 19 00:00:00 EDT 2008,208000,38.468639,-121.40326499999999,SACRAMENTO,CA,95828,4,3,Residential,False,CT
9474 VILLAGE TREE DR,1776,Mon May 19 00:00:00 EDT 2008,210000,38.413947,-121.408276,ELK GROVE,CA,95758,4,2,Residential,False,DR
7213 CALVIN DR,1258,Mon May 19 00:00:00 EDT 2008,212000,38.698153999999995,-121.298375,CITRUS HEIGHTS,CA,95621,3,1,Residential,False,DR
8167 DERBY PARK CT,1872,Mon May 19 00:00:00 EDT 2008,213675,38.460491999999995,-121.373379,SACRAMENTO,CA,95828,4,2,Residential,False,CT
6344 LAGUNA MIRAGE LN,1112,Mon May 19 00:00:00 EDT 2008,213697,38.423963,-121.428875,ELK GROVE,CA,95758,2,2,Residential,False,LN
2945 RED HAWK WAY,1856,Mon May 19 00:00:00 EDT 2008,215000,38.619675,-121.496903,SACRAMENTO,CA,95833,4,2,Residential,False,WAY
3228 I ST,1939,Mon May 19 00:00:00 EDT 2008,215000,38.573844,-121.46283899999999,SACRAMENTO,CA,95816,4,3,Residential,False,ST
308 ATKINSON ST,998,Mon May 19 00:00:00 EDT 2008,215100,38.746794,-121.29971,ROSEVILLE,CA,95678,3,1,Residential,False,ST
624 HOVEY WAY,1758,Mon May 19 00:00:00 EDT 2008,217500,38.756149,-121.30647900000001,ROSEVILLE,CA,95678,3,2,Residential,False,WAY
110 COPPER LEAF WAY,2142,Mon May 19 00:00:00 EDT 2008,218000,38.658466,-121.46066100000002,SACRAMENTO,CA,95838,3,2,Residential,False,WAY
7535 ALMA VISTA WAY,950,Mon May 19 00:00:00 EDT 2008,220000,38.48403,-121.50764099999999,SACRAMENTO,CA,95831,2,1,Residential,False,VISTA
7423 WILSALL CT,1739,Mon May 19 00:00:00 EDT 2008,221000,38.417026,-121.416821,ELK GROVE,CA,95758,4,3,Residential,False,CT
8629 VIA ALTA WAY,1516,Mon May 19 00:00:00 EDT 2008,222900,38.398245,-121.38061499999999,ELK GROVE,CA,95624,3,2,Residential,False,WAY
3318 DAVIDSON DR,988,Mon May 19 00:00:00 EDT 2008,223139,38.705753,-121.38891699999999,ANTELOPE,CA,95843,3,1,Residential,False,DR
913 COBDEN CT,1555,Mon May 19 00:00:00 EDT 2008,225500,38.282001,-121.295902,GALT,CA,95632,4,2,Residential,False,CT
4419 79TH ST,1212,Mon May 19 00:00:00 EDT 2008,228327,38.534827,-121.412545,SACRAMENTO,CA,95820,3,2,Residential,False,ST
3012 SPOONWOOD WAY,1871,Mon May 19 00:00:00 EDT 2008,230000,38.62478,-121.523474,SACRAMENTO,CA,95833,4,2,Residential,False,WAY
8728 CRYSTAL RIVER WAY,1302,Mon May 19 00:00:00 EDT 2008,230000,38.47547,-121.380055,SACRAMENTO,CA,95828,3,2,Residential,False,WAY
4709 AMBER LN Unit 1,756,Mon May 19 00:00:00 EDT 2008,230522,38.657789,-121.35499399999999,SACRAMENTO,CA,95841,2,1,Condo,False,LN
4508 OLD DAIRY DR,2026,Mon May 19 00:00:00 EDT 2008,231200,38.72286,-121.35893899999999,ANTELOPE,CA,95843,4,3,Residential,False,DR
312 RIVER ISLE WAY,1375,Mon May 19 00:00:00 EDT 2008,232000,38.49026,-121.550527,SACRAMENTO,CA,95831,3,2,Residential,False,WAY
301 OLIVADI WAY,1250,Mon May 19 00:00:00 EDT 2008,232500,38.644406,-121.549049,SACRAMENTO,CA,95834,2,2,Condo,False,WAY
5636 25TH ST,1058,Mon May 19 00:00:00 EDT 2008,233641,38.523828,-121.48113899999998,SACRAMENTO,CA,95822,3,1,Residential,False,ST
8721 SPRUCE RIDGE WAY,1187,Mon May 19 00:00:00 EDT 2008,234000,38.727657,-121.391028,ANTELOPE,CA,95843,3,2,Residential,False,WAY
7461 WINDBRIDGE DR,1324,Mon May 19 00:00:00 EDT 2008,234500,38.487970000000004,-121.530229,SACRAMENTO,CA,95831,2,2,Residential,False,DR
8101 LEMON COVE CT,1936,Mon May 19 00:00:00 EDT 2008,235000,38.462981,-121.40828799999998,SACRAMENTO,CA,95828,4,3,Residential,False,CT
10949 SCOTSMAN WAY,2382,Mon May 19 00:00:00 EDT 2008,236000,38.603685999999996,-121.27784399999999,RANCHO CORDOVA,CA,95670,5,4,Multi-Family,False,WAY
617 WILLOW CREEK DR,1427,Mon May 19 00:00:00 EDT 2008,236073,38.679626,-121.14260900000001,FOLSOM,CA,95630,3,2,Residential,False,DR
3301 PARK DR Unit 1914,1678,Mon May 19 00:00:00 EDT 2008,238000,38.665296000000005,-121.531993,SACRAMENTO,CA,95835,3,2,Condo,False,DR
709 CIMMARON CT,1798,Mon May 19 00:00:00 EDT 2008,238861,38.277177,-121.303747,GALT,CA,95632,4,2,Residential,False,CT
3305 RIO ROCA CT,2652,Mon May 19 00:00:00 EDT 2008,239700,38.725079,-121.387698,ANTELOPE,CA,95843,4,3,Residential,False,CT
9080 BEDROCK CT,1816,Mon May 19 00:00:00 EDT 2008,240000,38.456939,-121.36296499999999,SACRAMENTO,CA,95829,4,2,Residential,False,CT
100 TOURMALINE CIR,3076,Mon May 19 00:00:00 EDT 2008,240000,38.634370000000004,-121.510779,SACRAMENTO,CA,95834,5,3,Residential,False,CIR
6411 RED BIRCH WAY,1844,Mon May 19 00:00:00 EDT 2008,241000,38.43461,-121.42931599999999,ELK GROVE,CA,95758,4,2,Residential,False,WAY
4867 LAGUNA DR,1306,Mon May 19 00:00:00 EDT 2008,245000,38.46179,-121.445371,SACRAMENTO,CA,95823,3,2,Residential,False,DR
3662 RIVER DR,2447,Mon May 19 00:00:00 EDT 2008,246000,38.604969,-121.54255,SACRAMENTO,CA,95833,4,3,Residential,False,DR
6943 WOLFGRAM WAY,1176,Mon May 19 00:00:00 EDT 2008,247234,38.489215,-121.419546,SACRAMENTO,CA,95828,4,2,Residential,False,WAY
77 RINETTI WAY,1182,Mon May 19 00:00:00 EDT 2008,247480,38.687021,-121.463151,RIO LINDA,CA,95673,4,2,Residential,False,WAY
1316 I ST,1160,Mon May 19 00:00:00 EDT 2008,249862,38.683673999999996,-121.435204,RIO LINDA,CA,95673,3,1,Residential,False,ST
2130 CATHERWOOD WAY,1424,Mon May 19 00:00:00 EDT 2008,251000,38.675506,-121.51098700000001,SACRAMENTO,CA,95835,3,2,Residential,False,WAY
8304 JUGLANS DR,1574,Mon May 19 00:00:00 EDT 2008,252155,38.691829,-121.24903300000001,ORANGEVALE,CA,95662,4,2,Residential,False,DR
5308 MARBURY WAY,1830,Mon May 19 00:00:00 EDT 2008,254172,38.710221000000004,-121.341707,ANTELOPE,CA,95843,3,2,Residential,False,WAY
9182 LAKEMONT DR,1724,Mon May 19 00:00:00 EDT 2008,258000,38.451353000000005,-121.358776,ELK GROVE,CA,95624,4,2,Residential,False,DR
2231 COUNTRY VILLA CT,1255,Mon May 19 00:00:00 EDT 2008,260000,38.931671,-121.097862,AUBURN,CA,95603,2,2,Condo,False,CT
8491 CRYSTAL WALK CIR,0,Mon May 19 00:00:00 EDT 2008,261000,38.416916,-121.407554,ELK GROVE,CA,95758,0,0,Residential,True,CIR
361 MAHONIA CIR,2175,Mon May 19 00:00:00 EDT 2008,261000,38.676171999999994,-121.50976100000001,SACRAMENTO,CA,95835,4,3,Residential,False,CIR
3427 LA CADENA WAY,1904,Mon May 19 00:00:00 EDT 2008,261000,38.681194,-121.537351,SACRAMENTO,CA,95835,4,2,Residential,False,WAY
955 BIG SUR CT,1808,Mon May 19 00:00:00 EDT 2008,262500,38.664347,-121.07652900000001,EL DORADO HILLS,CA,95762,4,2,Residential,False,CT
11826 DIONYSUS WAY,2711,Mon May 19 00:00:00 EDT 2008,266000,38.551046,-121.239411,RANCHO CORDOVA,CA,95742,4,2,Residential,False,WAY
5847 DEL CAMPO LN,1713,Mon May 19 00:00:00 EDT 2008,266000,38.671995,-121.324339,CARMICHAEL,CA,95608,3,1,Residential,False,LN
5635 FOXVIEW WAY,1457,Mon May 19 00:00:00 EDT 2008,270000,38.395255999999996,-121.438249,ELK GROVE,CA,95757,3,2,Residential,False,WAY
10372 VIA CINTA CT,2724,Mon May 19 00:00:00 EDT 2008,274425,38.380089,-121.42818600000001,ELK GROVE,CA,95757,4,3,Residential,False,CT
6286 LONETREE BLVD,0,Mon May 19 00:00:00 EDT 2008,274500,38.805036,-121.293608,ROCKLIN,CA,95765,0,0,Residential,True,BLVD
7744 SOUTHBREEZE DR,1468,Mon May 19 00:00:00 EDT 2008,275336,38.476932,-121.378349,SACRAMENTO,CA,95828,3,2,Residential,False,DR
2242 ABLE WAY,2550,Mon May 19 00:00:00 EDT 2008,277980,38.666074,-121.509743,SACRAMENTO,CA,95835,4,3,Residential,False,WAY
1042 STARBROOK DR,1928,Mon May 19 00:00:00 EDT 2008,280000,38.285610999999996,-121.29306299999999,GALT,CA,95632,4,2,Residential,False,DR
1219 G ST,1922,Mon May 19 00:00:00 EDT 2008,284686,38.582817999999996,-121.48909599999999,SACRAMENTO,CA,95814,3,3,Residential,False,ST
6220 OPUS CT,1343,Mon May 19 00:00:00 EDT 2008,284893,38.715853,-121.317095,CITRUS HEIGHTS,CA,95621,3,2,Residential,False,CT
5419 HAVENHURST CIR,1510,Mon May 19 00:00:00 EDT 2008,285000,38.786746,-121.209957,ROCKLIN,CA,95677,3,2,Residential,False,CIR
220 OLD AIRPORT RD,960,Mon May 19 00:00:00 EDT 2008,285000,38.939802,-121.054575,AUBURN,CA,95603,2,2,Multi-Family,False,RD
4622 MEYER WAY,1559,Mon May 19 00:00:00 EDT 2008,285000,38.64913,-121.310667,CARMICHAEL,CA,95608,4,2,Residential,False,WAY
4885 SUMMIT VIEW DR,1624,Mon May 19 00:00:00 EDT 2008,289000,38.673285,-120.879176,EL DORADO,CA,95623,3,2,Residential,False,DR
26 JEANROSS CT,2992,Mon May 19 00:00:00 EDT 2008,295000,38.473162,-121.49108500000001,SACRAMENTO,CA,95832,5,3,Residential,False,CT
4800 MAPLEPLAIN AVE,2109,Mon May 19 00:00:00 EDT 2008,296000,38.432848,-121.44923700000001,ELK GROVE,CA,95758,4,2,Residential,False,AVE
10629 BASIE WAY,1524,Mon May 19 00:00:00 EDT 2008,296056,38.579,-121.292627,RANCHO CORDOVA,CA,95670,4,2,Residential,False,WAY
8612 WILLOW GROVE WAY,1248,Mon May 19 00:00:00 EDT 2008,297359,38.464994,-121.38696200000001,SACRAMENTO,CA,95828,3,2,Residential,False,WAY
62 DE FER CIR,1876,Mon May 19 00:00:00 EDT 2008,299940,38.492540000000005,-121.46331599999999,SACRAMENTO,CA,95823,4,2,Residential,False,CIR
2513 OLD KENMARE RD,0,Mon May 19 00:00:00 EDT 2008,304000,38.847396,-121.25958600000001,LINCOLN,CA,95648,5,3,Residential,True,RD
3253 ABOTO WAY,1851,Mon May 19 00:00:00 EDT 2008,305000,38.57727,-121.285591,RANCHO CORDOVA,CA,95670,4,3,Residential,False,WAY
3072 VILLAGE PLAZA DR,0,Mon May 19 00:00:00 EDT 2008,307000,38.773094,-121.365905,ROSEVILLE,CA,95747,0,0,Residential,True,DR
251 CHANGO CIR,2218,Mon May 19 00:00:00 EDT 2008,311328,38.68237,-121.539147,SACRAMENTO,CA,95835,4,2,Residential,False,CIR
8205 WEYBURN CT,1394,Mon May 19 00:00:00 EDT 2008,313138,38.47316,-121.403893,SACRAMENTO,CA,95828,3,2,Residential,False,CT
8788 LA MARGARITA WAY,1410,Mon May 19 00:00:00 EDT 2008,316630,38.468185,-121.375694,SACRAMENTO,CA,95828,3,2,Residential,False,WAY
5912 DEEPDALE WAY,3468,Mon May 19 00:00:00 EDT 2008,320000,38.439565,-121.43660600000001,ELK GROVE,CA,95758,5,3,Residential,False,WAY
4712 PISMO BEACH DR,2346,Mon May 19 00:00:00 EDT 2008,320000,38.707705,-121.354153,ANTELOPE,CA,95843,5,3,Residential,False,DR
4741 PACIFIC PARK DR,2347,Mon May 19 00:00:00 EDT 2008,325000,38.709299,-121.35305600000001,ANTELOPE,CA,95843,5,3,Residential,False,DR
310 GROTH CIR,1659,Mon May 19 00:00:00 EDT 2008,328578,38.638764,-121.531827,SACRAMENTO,CA,95834,4,2,Residential,False,CIR
6121 WILD FOX CT,2442,Mon May 19 00:00:00 EDT 2008,331000,38.406758,-121.431669,ELK GROVE,CA,95757,3,3,Residential,False,CT
12241 CANYONLANDS DR,0,Mon May 19 00:00:00 EDT 2008,331500,38.557293,-121.217611,RANCHO CORDOVA,CA,95742,0,0,Residential,True,DR
29 COOL FOUNTAIN CT,2155,Mon May 19 00:00:00 EDT 2008,340000,38.606906,-121.54132,SACRAMENTO,CA,95833,4,2,Residential,False,CT
907 RIO ROBLES AVE,0,Mon May 19 00:00:00 EDT 2008,344755,38.664765,-121.445006,SACRAMENTO,CA,95838,0,0,Residential,True,AVE
8909 BILLFISH WAY,1810,Mon May 19 00:00:00 EDT 2008,345746,38.475433,-121.372584,SACRAMENTO,CA,95828,3,2,Residential,False,WAY
6232 GUS WAY,2789,Mon May 19 00:00:00 EDT 2008,351000,38.388129,-121.43117,ELK GROVE,CA,95757,4,2,Residential,False,WAY
200 OAKWILDE ST,1606,Mon May 19 00:00:00 EDT 2008,353767,38.2535,-121.31812,GALT,CA,95632,4,2,Residential,False,ST
1033 PARK STREAM DR,0,Mon May 19 00:00:00 EDT 2008,355000,38.287785,-121.28990300000001,GALT,CA,95632,0,0,Residential,True,DR
200 ALLAIRE CIR,2166,Mon May 19 00:00:00 EDT 2008,356035,38.68318,-121.53483999999999,SACRAMENTO,CA,95835,4,2,Residential,False,CIR
1322 SUTTER WALK,0,Mon May 19 00:00:00 EDT 2008,360000,38.53805,-121.5047,SACRAMENTO,CA,95816,0,0,Condo,True,WALK
5479 NICKMAN WAY,1871,Mon May 19 00:00:00 EDT 2008,360552,38.672965999999995,-121.502748,SACRAMENTO,CA,95835,4,2,Residential,False,WAY
2103 BURBERRY WAY,1800,Mon May 19 00:00:00 EDT 2008,362305,38.67342,-121.50854199999999,SACRAMENTO,CA,95835,3,2,Residential,False,WAY
2450 SAN JOSE WAY,1683,Mon May 19 00:00:00 EDT 2008,365000,38.553596,-121.459483,SACRAMENTO,CA,95817,3,1,Residential,False,WAY
7641 ROSEHALL DR,0,Mon May 19 00:00:00 EDT 2008,367554,38.791616999999995,-121.286147,ROSEVILLE,CA,95678,3,2,Residential,True,DR
1336 LAYSAN TEAL DR,0,Mon May 19 00:00:00 EDT 2008,368500,38.796121,-121.31996299999999,ROSEVILLE,CA,95747,0,0,Residential,True,DR
2802 BLACK OAK DR,1596,Mon May 19 00:00:00 EDT 2008,370000,38.837006,-121.232024,ROCKLIN,CA,95765,2,2,Residential,False,DR
2113 FALL TRAIL CT,0,Mon May 19 00:00:00 EDT 2008,371086,38.733155,-120.74803899999999,PLACERVILLE,CA,95667,4,2,Residential,True,CT
10112 LAMBEAU CT,1179,Mon May 19 00:00:00 EDT 2008,378000,38.390328000000004,-121.448022,ELK GROVE,CA,95757,3,2,Residential,False,CT
6313 CASTRO VERDE WAY,0,Mon May 19 00:00:00 EDT 2008,383000,38.381102,-121.42901,ELK GROVE,CA,95757,0,0,Residential,True,WAY
3622 CURTIS DR,1639,Mon May 19 00:00:00 EDT 2008,388000,38.541734999999996,-121.480098,SACRAMENTO,CA,95818,3,1,Residential,False,DR
11817 OPAL RIDGE WAY,3281,Mon May 19 00:00:00 EDT 2008,395100,38.551083,-121.237476,RANCHO CORDOVA,CA,95742,5,3,Residential,False,WAY
170 LAGOMARSINO WAY,1697,Mon May 19 00:00:00 EDT 2008,400000,38.574894,-121.435806,SACRAMENTO,CA,95819,3,2,Residential,False,WAY
2743 DEAKIN PL,0,Mon May 19 00:00:00 EDT 2008,400000,38.69288,-121.073551,EL DORADO HILLS,CA,95762,3,2,Residential,True,PL
3361 ALDER CANYON WAY,2085,Mon May 19 00:00:00 EDT 2008,408431,38.727649,-121.38565600000001,ANTELOPE,CA,95843,4,3,Residential,False,WAY
2148 RANCH VIEW DR,0,Mon May 19 00:00:00 EDT 2008,413000,38.837455,-121.28933700000002,ROCKLIN,CA,95765,0,0,Residential,True,DR
398 LINDLEY DR,1744,Mon May 19 00:00:00 EDT 2008,416767,38.622359,-121.457582,SACRAMENTO,CA,95815,4,2,Multi-Family,False,DR
3013 BRIDLEWOOD DR,0,Mon May 19 00:00:00 EDT 2008,420000,38.675519,-121.01586200000001,EL DORADO HILLS,CA,95762,4,3,Residential,True,DR
169 BAURER CIR,1939,Mon May 19 00:00:00 EDT 2008,423000,38.66695,-121.120729,FOLSOM,CA,95630,4,3,Residential,False,CIR
2809 LOON CT,0,Mon May 19 00:00:00 EDT 2008,423000,38.687072,-121.004729,CAMERON PARK,CA,95682,4,2,Residential,True,CT
1315 KONDOS AVE,1788,Mon May 19 00:00:00 EDT 2008,427500,38.571943,-121.492106,SACRAMENTO,CA,95814,2,3,Residential,False,AVE
4966 CHARTER RD,1691,Mon May 19 00:00:00 EDT 2008,430922,38.82553,-121.254698,ROCKLIN,CA,95765,3,2,Residential,False,RD
9516 LAGUNA LAKE WAY,2002,Mon May 19 00:00:00 EDT 2008,445000,38.411258000000004,-121.431348,ELK GROVE,CA,95758,4,2,Residential,False,WAY
5201 BLOSSOM RANCH DR,4303,Mon May 19 00:00:00 EDT 2008,450000,38.399436,-121.444041,ELK GROVE,CA,95757,4,4,Residential,False,DR
3027 PALMATE WAY,4246,Mon May 19 00:00:00 EDT 2008,452000,38.628955,-121.529269,SACRAMENTO,CA,95834,5,3,Residential,False,WAY
500 WINCHESTER CT,2274,Mon May 19 00:00:00 EDT 2008,470000,38.73988,-121.248929,ROSEVILLE,CA,95661,3,2,Residential,False,CT
5746 GELSTON WAY,0,Mon May 19 00:00:00 EDT 2008,471000,38.677015000000004,-121.03408300000001,EL DORADO HILLS,CA,95762,4,3,Residential,True,WAY
6935 ELM TREE LN,3056,Mon May 19 00:00:00 EDT 2008,475000,38.693041,-121.23293999999999,ORANGEVALE,CA,95662,4,4,Residential,False,LN
9605 GOLF COURSE LN,2503,Mon May 19 00:00:00 EDT 2008,484500,38.409689,-121.446059,ELK GROVE,CA,95758,3,3,Residential,False,LN
719 BAYWOOD CT,0,Mon May 19 00:00:00 EDT 2008,487500,38.647597999999995,-121.07780100000001,EL DORADO HILLS,CA,95762,5,3,Residential,True,CT
5954 TANUS CIR,0,Mon May 19 00:00:00 EDT 2008,488750,38.777584999999995,-121.2036,ROCKLIN,CA,95677,3,3,Residential,True,CIR
100 CHELSEA CT,1905,Mon May 19 00:00:00 EDT 2008,500000,38.69435,-121.177259,FOLSOM,CA,95630,3,2,Residential,False,CT
1500 ORANGE HILL LN,1320,Mon May 19 00:00:00 EDT 2008,506688,38.862708000000005,-121.16209199999999,PENRYN,CA,95663,3,2,Residential,False,LN
408 KIRKWOOD CT,0,Mon May 19 00:00:00 EDT 2008,512000,38.861615,-121.26868999999999,LINCOLN,CA,95648,2,2,Residential,True,CT
1732 TUSCAN GROVE CIR,0,Mon May 19 00:00:00 EDT 2008,520000,38.796683,-121.342555,ROSEVILLE,CA,95747,5,3,Residential,True,CIR
2049 EMPIRE MINE CIR,3037,Mon May 19 00:00:00 EDT 2008,528000,38.629298999999996,-121.249021,GOLD RIVER,CA,95670,4,2,Residential,False,CIR
9360 MAGOS RD,3741,Mon May 19 00:00:00 EDT 2008,579093,38.416809,-121.240628,WILTON,CA,95693,5,2,Residential,False,RD
104 CATLIN CT,2660,Mon May 19 00:00:00 EDT 2008,636000,38.684459000000004,-121.14593500000001,FOLSOM,CA,95630,4,3,Residential,False,CT
4734 GIBBONS DR,3357,Mon May 19 00:00:00 EDT 2008,668365,38.63558,-121.35363899999999,CARMICHAEL,CA,95608,4,3,Residential,False,DR
4629 DORCHESTER LN,2896,Mon May 19 00:00:00 EDT 2008,676200,38.723545,-121.216025,GRANITE BAY,CA,95746,5,3,Residential,False,LN
2400 COUNTRYSIDE DR,2025,Mon May 19 00:00:00 EDT 2008,677048,38.737452000000005,-120.910963,PLACERVILLE,CA,95667,3,2,Residential,False,DR
12901 FURLONG DR,3788,Mon May 19 00:00:00 EDT 2008,691659,38.413534999999996,-121.18821100000001,WILTON,CA,95693,5,3,Residential,False,DR
6222 CALLE MONTALVO CIR,3670,Mon May 19 00:00:00 EDT 2008,760000,38.779435,-121.146676,GRANITE BAY,CA,95746,5,3,Residential,False,CIR
20 CRYSTALWOOD CIR,0,Mon May 19 00:00:00 EDT 2008,4897,38.885327000000004,-121.28941200000001,LINCOLN,CA,95648,0,0,Residential,True,CIR
24 CRYSTALWOOD CIR,0,Mon May 19 00:00:00 EDT 2008,4897,38.885132,-121.289405,LINCOLN,CA,95648,0,0,Residential,True,CIR
28 CRYSTALWOOD CIR,0,Mon May 19 00:00:00 EDT 2008,4897,38.884935999999996,-121.289397,LINCOLN,CA,95648,0,0,Residential,True,CIR
32 CRYSTALWOOD CIR,0,Mon May 19 00:00:00 EDT 2008,4897,38.884741,-121.28939,LINCOLN,CA,95648,0,0,Residential,True,CIR
36 CRYSTALWOOD CIR,0,Mon May 19 00:00:00 EDT 2008,4897,38.884599,-121.289406,LINCOLN,CA,95648,0,0,Residential,True,CIR
40 CRYSTALWOOD CIR,0,Mon May 19 00:00:00 EDT 2008,4897,38.884535,-121.28961899999999,LINCOLN,CA,95648,0,0,Residential,True,CIR
44 CRYSTALWOOD CIR,0,Mon May 19 00:00:00 EDT 2008,4897,38.88459,-121.28983500000001,LINCOLN,CA,95648,0,0,Residential,True,CIR
48 CRYSTALWOOD CIR,0,Mon May 19 00:00:00 EDT 2008,4897,38.884667,-121.289896,LINCOLN,CA,95648,0,0,Residential,True,CIR
52 CRYSTALWOOD CIR,0,Mon May 19 00:00:00 EDT 2008,4897,38.88478,-121.289911,LINCOLN,CA,95648,0,0,Residential,True,CIR
68 CRYSTALWOOD CIR,0,Mon May 19 00:00:00 EDT 2008,4897,38.885236,-121.289928,LINCOLN,CA,95648,0,0,Residential,True,CIR
72 CRYSTALWOOD CIR,0,Mon May 19 00:00:00 EDT 2008,4897,38.88535,-121.289926,LINCOLN,CA,95648,0,0,Residential,True,CIR
76 CRYSTALWOOD CIR,0,Mon May 19 00:00:00 EDT 2008,4897,38.885464,-121.289922,LINCOLN,CA,95648,0,0,Residential,True,CIR
80 CRYSTALWOOD CIR,0,Mon May 19 00:00:00 EDT 2008,4897,38.885578,-121.289919,LINCOLN,CA,95648,0,0,Residential,True,CIR
84 CRYSTALWOOD CIR,0,Mon May 19 00:00:00 EDT 2008,4897,38.885692,-121.289915,LINCOLN,CA,95648,0,0,Residential,True,CIR
88 CRYSTALWOOD CIR,0,Mon May 19 00:00:00 EDT 2008,4897,38.885806,-121.289911,LINCOLN,CA,95648,0,0,Residential,True,CIR
92 CRYSTALWOOD CIR,0,Mon May 19 00:00:00 EDT 2008,4897,38.88592,-121.28990800000001,LINCOLN,CA,95648,0,0,Residential,True,CIR
96 CRYSTALWOOD CIR,0,Mon May 19 00:00:00 EDT 2008,4897,38.886024,-121.289859,LINCOLN,CA,95648,0,0,Residential,True,CIR
100 CRYSTALWOOD CIR,0,Mon May 19 00:00:00 EDT 2008,4897,38.886091,-121.289744,LINCOLN,CA,95648,0,0,Residential,True,CIR
434 1ST ST,0,Mon May 19 00:00:00 EDT 2008,4897,38.88653,-121.289406,LINCOLN,CA,95648,0,0,Residential,True,ST
3 E ST,0,Mon May 19 00:00:00 EDT 2008,4897,38.884692,-121.29028799999999,LINCOLN,CA,95648,0,0,Residential,True,ST
11 E ST,0,Mon May 19 00:00:00 EDT 2008,4897,38.884879,-121.29025700000001,LINCOLN,CA,95648,0,0,Residential,True,ST
19 E ST,0,Mon May 19 00:00:00 EDT 2008,4897,38.885017,-121.29026200000001,LINCOLN,CA,95648,0,0,Residential,True,ST
27 E ST,0,Mon May 19 00:00:00 EDT 2008,4897,38.885172999999995,-121.29026999999999,LINCOLN,CA,95648,0,0,Residential,True,ST
35 E ST,0,Mon May 19 00:00:00 EDT 2008,4897,38.885328,-121.290275,LINCOLN,CA,95648,0,0,Residential,True,ST
43 E ST,0,Mon May 19 00:00:00 EDT 2008,4897,38.885483,-121.290277,LINCOLN,CA,95648,0,0,Residential,True,ST
51 E ST,0,Mon May 19 00:00:00 EDT 2008,4897,38.885638,-121.290279,LINCOLN,CA,95648,4,2,Residential,True,ST
59 E ST,0,Mon May 19 00:00:00 EDT 2008,4897,38.885794,-121.29028100000001,LINCOLN,CA,95648,3,2,Residential,True,ST
75 E ST,0,Mon May 19 00:00:00 EDT 2008,4897,38.886103999999996,-121.29028500000001,LINCOLN,CA,95648,3,2,Residential,True,ST
63 CRYSTALWOOD CIR,0,Mon May 19 00:00:00 EDT 2008,4897,38.885093,-121.28993200000001,LINCOLN,CA,95648,0,0,Residential,True,CIR
398 1ST ST,0,Mon May 19 00:00:00 EDT 2008,4897,38.88653,-121.288952,LINCOLN,CA,95648,0,0,Residential,True,ST
386 1ST ST,0,Mon May 19 00:00:00 EDT 2008,4897,38.886528000000006,-121.28886899999999,LINCOLN,CA,95648,0,0,Residential,True,ST
374 1ST ST,0,Mon May 19 00:00:00 EDT 2008,4897,38.886525,-121.28878700000001,LINCOLN,CA,95648,0,0,Residential,True,ST
116 CRYSTALWOOD WAY,0,Mon May 19 00:00:00 EDT 2008,4897,38.886282,-121.28958600000001,LINCOLN,CA,95648,0,0,Residential,True,WAY
108 CRYSTALWOOD WAY,0,Mon May 19 00:00:00 EDT 2008,4897,38.886282,-121.28964599999999,LINCOLN,CA,95648,0,0,Residential,True,WAY
100 CRYSTALWOOD WAY,0,Mon May 19 00:00:00 EDT 2008,4897,38.886282,-121.28970600000001,LINCOLN,CA,95648,0,0,Residential,True,WAY
55 CRYSTALWOOD CIR,0,Mon May 19 00:00:00 EDT 2008,4897,38.884865000000005,-121.289922,LINCOLN,CA,95648,0,0,Residential,True,CIR
51 CRYSTALWOOD CIR,0,Mon May 19 00:00:00 EDT 2008,4897,38.884752,-121.289907,LINCOLN,CA,95648,0,0,Residential,True,CIR
47 CRYSTALWOOD CIR,0,Mon May 19 00:00:00 EDT 2008,4897,38.884638,-121.28989299999999,LINCOLN,CA,95648,0,0,Residential,True,CIR
43 CRYSTALWOOD CIR,0,Mon May 19 00:00:00 EDT 2008,4897,38.884568,-121.28978400000001,LINCOLN,CA,95648,0,0,Residential,True,CIR
39 CRYSTALWOOD CIR,0,Mon May 19 00:00:00 EDT 2008,4897,38.884546,-121.28956200000002,LINCOLN,CA,95648,0,0,Residential,True,CIR
35 CRYSTALWOOD CIR,0,Mon May 19 00:00:00 EDT 2008,4897,38.884645,-121.289397,LINCOLN,CA,95648,0,0,Residential,True,CIR
31 CRYSTALWOOD CIR,0,Mon May 19 00:00:00 EDT 2008,4897,38.88479,-121.28939199999999,LINCOLN,CA,95648,0,0,Residential,True,CIR
27 CRYSTALWOOD CIR,0,Mon May 19 00:00:00 EDT 2008,4897,38.884985,-121.289399,LINCOLN,CA,95648,0,0,Residential,True,CIR
23 CRYSTALWOOD CIR,0,Mon May 19 00:00:00 EDT 2008,4897,38.885181,-121.289406,LINCOLN,CA,95648,0,0,Residential,True,CIR
19 CRYSTALWOOD CIR,0,Mon May 19 00:00:00 EDT 2008,4897,38.885376,-121.289414,LINCOLN,CA,95648,0,0,Residential,True,CIR
15 CRYSTALWOOD CIR,0,Mon May 19 00:00:00 EDT 2008,4897,38.885571,-121.28942099999999,LINCOLN,CA,95648,0,0,Residential,True,CIR
7 CRYSTALWOOD CIR,0,Mon May 19 00:00:00 EDT 2008,4897,38.885962,-121.28943600000001,LINCOLN,CA,95648,0,0,Residential,True,CIR
7 CRYSTALWOOD CIR,0,Mon May 19 00:00:00 EDT 2008,4897,38.885962,-121.28943600000001,LINCOLN,CA,95648,0,0,Residential,True,CIR
3 CRYSTALWOOD CIR,0,Mon May 19 00:00:00 EDT 2008,4897,38.886093,-121.289584,LINCOLN,CA,95648,0,0,Residential,True,CIR
8208 WOODYARD WAY,1166,Fri May 16 00:00:00 EDT 2008,30000,38.715322,-121.31478700000001,CITRUS HEIGHTS,CA,95621,3,2,Residential,False,WAY
113 RINETTI WAY,0,Fri May 16 00:00:00 EDT 2008,30000,38.687172,-121.46393300000001,RIO LINDA,CA,95673,0,0,Residential,True,WAY
15 LOORZ CT,838,Fri May 16 00:00:00 EDT 2008,55422,38.471646,-121.435158,SACRAMENTO,CA,95823,2,1,Residential,False,CT
5805 DOTMAR WAY,904,Fri May 16 00:00:00 EDT 2008,63000,38.672641999999996,-121.380343,NORTH HIGHLANDS,CA,95660,2,1,Residential,False,WAY
2332 CAMBRIDGE ST,1032,Fri May 16 00:00:00 EDT 2008,65000,38.608084999999996,-121.449651,SACRAMENTO,CA,95815,2,1,Residential,False,ST
3812 BELDEN ST,904,Fri May 16 00:00:00 EDT 2008,65000,38.636833,-121.44163999999999,SACRAMENTO,CA,95838,2,1,Residential,False,ST
3348 40TH ST,1080,Fri May 16 00:00:00 EDT 2008,65000,38.544162,-121.460652,SACRAMENTO,CA,95817,2,1,Residential,False,ST
127 QUASAR CIR,990,Fri May 16 00:00:00 EDT 2008,66500,38.493503999999994,-121.47530400000001,SACRAMENTO,CA,95822,2,2,Residential,False,CIR
3812 CYPRESS ST,900,Fri May 16 00:00:00 EDT 2008,71000,38.636877,-121.444948,SACRAMENTO,CA,95838,2,1,Residential,False,ST
5821 64TH ST,861,Fri May 16 00:00:00 EDT 2008,75000,38.521202,-121.428146,SACRAMENTO,CA,95824,2,1,Residential,False,ST
8248 CENTER PKWY,906,Fri May 16 00:00:00 EDT 2008,77000,38.459002000000005,-121.428794,SACRAMENTO,CA,95823,2,1,Condo,False,PKWY
1171 SONOMA AVE,1011,Fri May 16 00:00:00 EDT 2008,85000,38.6238,-121.439872,SACRAMENTO,CA,95815,2,1,Residential,False,AVE
4250 ARDWELL WAY,1089,Fri May 16 00:00:00 EDT 2008,95625,38.466938,-121.45563100000001,SACRAMENTO,CA,95823,3,2,Residential,False,WAY
3104 CLAY ST,832,Fri May 16 00:00:00 EDT 2008,96140,38.623909999999995,-121.43920800000001,SACRAMENTO,CA,95815,2,1,Residential,False,ST
6063 LAND PARK DR,800,Fri May 16 00:00:00 EDT 2008,104250,38.517029,-121.51380900000001,SACRAMENTO,CA,95822,2,1,Condo,False,DR
4738 OAKHOLLOW DR,1292,Fri May 16 00:00:00 EDT 2008,105000,38.679598,-121.356035,SACRAMENTO,CA,95842,4,2,Residential,False,DR
1401 STERLING ST,810,Fri May 16 00:00:00 EDT 2008,108000,38.520319,-121.504727,SACRAMENTO,CA,95822,2,1,Residential,False,ST
3715 DIDCOT CIR,1064,Fri May 16 00:00:00 EDT 2008,109000,38.635232,-121.460098,SACRAMENTO,CA,95838,4,2,Residential,False,CIR
2426 RASHAWN DR,911,Fri May 16 00:00:00 EDT 2008,115000,38.610852,-121.273278,RANCHO CORDOVA,CA,95670,2,1,Residential,False,DR
4800 WESTLAKE PKWY Unit 410,846,Fri May 16 00:00:00 EDT 2008,115000,38.658812,-121.542345,SACRAMENTO,CA,95835,1,1,Condo,False,PKWY
3409 VIRGO ST,1320,Fri May 16 00:00:00 EDT 2008,115500,38.563402,-121.327747,SACRAMENTO,CA,95827,3,2,Residential,False,ST
1110 PINEDALE AVE,1410,Fri May 16 00:00:00 EDT 2008,115620,38.660173,-121.44021599999999,SACRAMENTO,CA,95838,3,2,Residential,False,AVE
2361 LA LOMA DR,1115,Fri May 16 00:00:00 EDT 2008,116000,38.59368,-121.31605400000001,RANCHO CORDOVA,CA,95670,3,2,Residential,False,DR
1455 64TH AVE,1169,Fri May 16 00:00:00 EDT 2008,122000,38.492177000000005,-121.50339199999999,SACRAMENTO,CA,95822,3,2,Residential,False,AVE
7328 SPRINGMAN ST,1164,Fri May 16 00:00:00 EDT 2008,122500,38.491991,-121.477636,SACRAMENTO,CA,95822,3,2,Residential,False,ST
119 SAINT MARIE CIR,1341,Fri May 16 00:00:00 EDT 2008,123000,38.481454,-121.44664399999999,SACRAMENTO,CA,95823,4,2,Residential,False,CIR
12 COSTA BRASE CT,1219,Fri May 16 00:00:00 EDT 2008,124000,38.655553999999995,-121.464275,SACRAMENTO,CA,95838,3,2,Residential,False,CT
6813 SCOTER WAY,1127,Fri May 16 00:00:00 EDT 2008,124000,38.69043,-121.36103500000002,SACRAMENTO,CA,95842,4,2,Residential,False,WAY
6548 GRAYLOCK LN,1272,Fri May 16 00:00:00 EDT 2008,124413,38.686060999999995,-121.369949,NORTH HIGHLANDS,CA,95660,3,2,Residential,False,LN
1630 GLIDDEN AVE,1253,Fri May 16 00:00:00 EDT 2008,125000,38.482717,-121.499683,SACRAMENTO,CA,95822,4,2,Residential,False,AVE
7825 DALEWOODS WAY,1120,Fri May 16 00:00:00 EDT 2008,130000,38.477297,-121.41151299999999,SACRAMENTO,CA,95828,3,2,Residential,False,WAY
4073 TRESLER AVE,1118,Fri May 16 00:00:00 EDT 2008,131750,38.659015999999994,-121.370457,NORTH HIGHLANDS,CA,95660,2,2,Residential,False,AVE
4288 DYMIC WAY,1890,Fri May 16 00:00:00 EDT 2008,137721,38.646541,-121.44113899999999,SACRAMENTO,CA,95838,4,3,Residential,False,WAY
1158 SAN IGNACIO WAY,1260,Fri May 16 00:00:00 EDT 2008,137760,38.623045,-121.48627900000001,SACRAMENTO,CA,95833,3,2,Residential,False,WAY
4904 J PKWY,1400,Fri May 16 00:00:00 EDT 2008,138000,38.487297,-121.44295,SACRAMENTO,CA,95823,3,2,Residential,False,PKWY
2931 HOWE AVE,1264,Fri May 16 00:00:00 EDT 2008,140000,38.619012,-121.415329,SACRAMENTO,CA,95821,3,1,Residential,False,AVE
5531 JANSEN DR,1060,Fri May 16 00:00:00 EDT 2008,145000,38.522015,-121.43871299999999,SACRAMENTO,CA,95824,3,1,Residential,False,DR
7836 ORCHARD WOODS CIR,1132,Fri May 16 00:00:00 EDT 2008,145000,38.47955,-121.410867,SACRAMENTO,CA,95828,2,2,Residential,False,CIR
4055 DEERBROOK DR,1466,Fri May 16 00:00:00 EDT 2008,150000,38.472117,-121.459589,SACRAMENTO,CA,95823,3,2,Residential,False,DR
9937 BURLINE ST,1092,Fri May 16 00:00:00 EDT 2008,150000,38.559641,-121.32316000000002,SACRAMENTO,CA,95827,3,2,Residential,False,ST
6948 MIRADOR WAY,1628,Fri May 16 00:00:00 EDT 2008,151000,38.493484,-121.42035,SACRAMENTO,CA,95828,4,2,Residential,False,WAY
4909 RUGER CT,960,Fri May 16 00:00:00 EDT 2008,155000,38.687470000000005,-121.34923400000001,SACRAMENTO,CA,95842,3,2,Residential,False,CT
7204 KERSTEN ST,1075,Fri May 16 00:00:00 EDT 2008,155800,38.695863,-121.30081399999999,CITRUS HEIGHTS,CA,95621,3,2,Residential,False,ST
3150 ROSEMONT DR,1428,Fri May 16 00:00:00 EDT 2008,156142,38.554927,-121.35521000000001,SACRAMENTO,CA,95826,3,2,Residential,False,DR
8200 STEINBECK WAY,1358,Fri May 16 00:00:00 EDT 2008,158000,38.474854,-121.404726,SACRAMENTO,CA,95828,4,2,Residential,False,WAY
8198 STEVENSON AVE,2475,Fri May 16 00:00:00 EDT 2008,159900,38.465271,-121.40426000000001,SACRAMENTO,CA,95828,6,4,Multi-Family,False,AVE
6824 OLIVE TREE WAY,1410,Fri May 16 00:00:00 EDT 2008,160000,38.689239,-121.26773700000001,CITRUS HEIGHTS,CA,95610,3,2,Residential,False,WAY
3536 SUN MAIDEN WAY,1711,Fri May 16 00:00:00 EDT 2008,161500,38.70968,-121.382328,ANTELOPE,CA,95843,3,2,Residential,False,WAY
4517 OLYMPIAD WAY,1483,Fri May 16 00:00:00 EDT 2008,161600,38.536751,-121.359154,SACRAMENTO,CA,95826,4,2,Residential,False,WAY
925 COBDEN CT,1140,Fri May 16 00:00:00 EDT 2008,162000,38.282047,-121.29581200000001,GALT,CA,95632,3,2,Residential,False,CT
8225 SCOTTSDALE DR,1549,Fri May 16 00:00:00 EDT 2008,165000,38.487864,-121.40247600000001,SACRAMENTO,CA,95828,4,2,Residential,False,DR
8758 LEMAS RD,1410,Fri May 16 00:00:00 EDT 2008,165000,38.467487,-121.377055,SACRAMENTO,CA,95828,3,2,Residential,False,RD
6121 ALPINESPRING WAY,1240,Fri May 16 00:00:00 EDT 2008,167293,38.434075,-121.43262299999999,ELK GROVE,CA,95758,3,2,Residential,False,WAY
5937 YORK GLEN WAY,1712,Fri May 16 00:00:00 EDT 2008,168000,38.677003000000006,-121.354454,SACRAMENTO,CA,95842,5,2,Residential,False,WAY
6417 SUNNYFIELD WAY,1580,Fri May 16 00:00:00 EDT 2008,168000,38.449153,-121.42827199999999,SACRAMENTO,CA,95823,4,2,Residential,False,WAY
4008 GREY LIVERY WAY,1669,Fri May 16 00:00:00 EDT 2008,168750,38.71846,-121.37086200000002,ANTELOPE,CA,95843,3,2,Residential,False,WAY
8920 ROSETTA CIR,1029,Fri May 16 00:00:00 EDT 2008,168750,38.544374,-121.370874,SACRAMENTO,CA,95826,3,1,Residential,False,CIR
8300 LICHEN DR,1103,Fri May 16 00:00:00 EDT 2008,170000,38.716409999999996,-121.30623899999999,CITRUS HEIGHTS,CA,95621,3,1,Residential,False,DR
8884 AMBERJACK WAY,2161,Fri May 16 00:00:00 EDT 2008,170250,38.479343,-121.372553,SACRAMENTO,CA,95828,3,2,Residential,False,WAY
4480 VALLEY HI DR,1650,Fri May 16 00:00:00 EDT 2008,173000,38.466781,-121.45095500000001,SACRAMENTO,CA,95823,3,2,Residential,False,DR
2250 FOREBAY RD,1320,Fri May 16 00:00:00 EDT 2008,175000,38.77491,-120.597599,POLLOCK PINES,CA,95726,3,1,Residential,False,RD
3529 FABERGE WAY,1200,Fri May 16 00:00:00 EDT 2008,176095,38.553275,-121.346218,SACRAMENTO,CA,95826,3,2,Residential,False,WAY
1792 DAWNELLE WAY,1170,Fri May 16 00:00:00 EDT 2008,176250,38.68271,-121.501697,SACRAMENTO,CA,95835,3,2,Residential,False,WAY
7800 TABARE CT,1199,Fri May 16 00:00:00 EDT 2008,178000,38.70799,-121.30297900000001,CITRUS HEIGHTS,CA,95621,3,2,Residential,False,CT
8531 HERMITAGE WAY,1695,Fri May 16 00:00:00 EDT 2008,179000,38.448452,-121.42853600000001,SACRAMENTO,CA,95823,4,2,Residential,False,WAY
2421 BERRYWOOD DR,1157,Fri May 16 00:00:00 EDT 2008,180000,38.60868,-121.27848999999999,RANCHO CORDOVA,CA,95670,3,2,Residential,False,DR
1005 MORENO WAY,1410,Fri May 16 00:00:00 EDT 2008,180000,38.646206,-121.44276699999999,SACRAMENTO,CA,95838,3,2,Residential,False,WAY
1675 VERNON ST Unit 24,1174,Fri May 16 00:00:00 EDT 2008,180000,38.734136,-121.29963899999998,ROSEVILLE,CA,95678,3,2,Residential,False,ST
24 WINDCHIME CT,1593,Fri May 16 00:00:00 EDT 2008,181000,38.44617,-121.427824,SACRAMENTO,CA,95823,3,2,Residential,False,CT
540 HARLING CT,1093,Fri May 16 00:00:00 EDT 2008,182000,38.682790000000004,-121.45350900000001,RIO LINDA,CA,95673,3,2,Residential,False,CT
1207 CRESCENDO DR,1770,Fri May 16 00:00:00 EDT 2008,182587,38.72446,-121.292829,ROSEVILLE,CA,95678,3,2,Residential,False,DR
7577 EDDYLEE WAY,1436,Fri May 16 00:00:00 EDT 2008,185074,38.48291,-121.49150900000001,SACRAMENTO,CA,95822,4,2,Residential,False,WAY
8369 FOPPIANO WAY,1124,Fri May 16 00:00:00 EDT 2008,185833,38.453839,-121.357919,SACRAMENTO,CA,95829,3,2,Residential,False,WAY
8817 SAWTELLE WAY,1139,Fri May 16 00:00:00 EDT 2008,186785,38.565321999999995,-121.374251,SACRAMENTO,CA,95826,4,2,Residential,False,WAY
1910 BONAVISTA WAY,1638,Fri May 16 00:00:00 EDT 2008,187000,38.476048,-121.494961,SACRAMENTO,CA,95832,3,2,Residential,False,VISTA
8 TIDE CT,1328,Fri May 16 00:00:00 EDT 2008,188335,38.609864,-121.492304,SACRAMENTO,CA,95833,3,2,Residential,False,CT
8952 ROCKY CREEK CT,1273,Fri May 16 00:00:00 EDT 2008,190000,38.431239,-121.44001000000002,ELK GROVE,CA,95758,3,2,Residential,False,CT
435 EXCHANGE ST,1082,Fri May 16 00:00:00 EDT 2008,190000,38.659434000000005,-121.45523600000001,SACRAMENTO,CA,95838,3,1,Residential,False,ST
10105 MONTE VALLO CT,1578,Fri May 16 00:00:00 EDT 2008,190000,38.573917,-121.31691599999999,SACRAMENTO,CA,95827,4,2,Residential,False,CT
3930 ANNABELLE AVE,796,Fri May 16 00:00:00 EDT 2008,190000,38.727609,-121.22649399999999,ROSEVILLE,CA,95661,2,1,Residential,False,AVE
4854 TANGERINE AVE,1386,Fri May 16 00:00:00 EDT 2008,191250,38.478239,-121.446326,SACRAMENTO,CA,95823,3,2,Residential,False,AVE
2909 SHAWN WAY,1452,Fri May 16 00:00:00 EDT 2008,193000,38.589925,-121.29905900000001,RANCHO CORDOVA,CA,95670,3,2,Residential,False,WAY
4290 BLACKFORD WAY,1513,Fri May 16 00:00:00 EDT 2008,193500,38.470494,-121.45416200000001,SACRAMENTO,CA,95823,3,2,Residential,False,WAY
5890 TT TRAK,0,Fri May 16 00:00:00 EDT 2008,194818,39.020808,-120.821518,FORESTHILL,CA,95631,0,0,Residential,True,TRAK
7015 WOODSIDE DR,1578,Fri May 16 00:00:00 EDT 2008,195000,38.693071,-121.332365,SACRAMENTO,CA,95842,4,2,Residential,False,DR
6019 CHESHIRE WAY,1736,Fri May 16 00:00:00 EDT 2008,195000,38.676437,-121.27916499999999,CITRUS HEIGHTS,CA,95610,4,3,Residential,False,WAY
3330 VILLAGE CT,0,Fri May 16 00:00:00 EDT 2008,195000,38.690504,-120.996245,CAMERON PARK,CA,95682,2,2,Residential,True,CT
2561 VERNA WAY,1473,Fri May 16 00:00:00 EDT 2008,195000,38.611055,-121.369964,SACRAMENTO,CA,95821,3,1,Residential,False,WAY
3522 22ND AVE,1150,Fri May 16 00:00:00 EDT 2008,198000,38.532725,-121.469078,SACRAMENTO,CA,95820,3,1,Residential,False,AVE
2880 CANDIDO DR,1127,Fri May 16 00:00:00 EDT 2008,199900,38.618019,-121.51021499999999,SACRAMENTO,CA,95833,3,2,Residential,False,DR
6908 PIN OAK CT,1144,Fri May 16 00:00:00 EDT 2008,200000,38.66424,-121.303675,FAIR OAKS,CA,95628,3,1,Residential,False,CT
5733 ANGELINA AVE,972,Fri May 16 00:00:00 EDT 2008,201000,38.622634000000005,-121.330846,CARMICHAEL,CA,95608,3,1,Residential,False,AVE
7849 BONNY DOWNS WAY,2306,Fri May 16 00:00:00 EDT 2008,204918,38.42139,-121.41133899999998,ELK GROVE,CA,95758,4,2,Residential,False,WAY
8716 LONGSPUR WAY,1479,Fri May 16 00:00:00 EDT 2008,205000,38.724083,-121.3584,ANTELOPE,CA,95843,3,2,Residential,False,WAY
6320 EL DORADO ST,1040,Fri May 16 00:00:00 EDT 2008,205000,38.678758,-120.844118,EL DORADO,CA,95623,2,1,Residential,False,ST
2328 DOROTHY JUNE WAY,1430,Fri May 16 00:00:00 EDT 2008,205878,38.641727,-121.41270300000001,SACRAMENTO,CA,95838,3,2,Residential,False,WAY
1986 DANVERS WAY,1800,Fri May 16 00:00:00 EDT 2008,207000,38.47723,-121.49256799999999,SACRAMENTO,CA,95832,4,2,Residential,False,WAY
7901 GAZELLE TRAIL WAY,1953,Fri May 16 00:00:00 EDT 2008,207744,38.71174,-121.342675,ANTELOPE,CA,95843,4,2,Residential,False,WAY
6080 BRIDGECROSS DR,1120,Fri May 16 00:00:00 EDT 2008,209000,38.681952,-121.50500900000002,SACRAMENTO,CA,95835,3,2,Residential,False,DR
20 GROTH CIR,1232,Fri May 16 00:00:00 EDT 2008,210000,38.640807,-121.53352199999999,SACRAMENTO,CA,95834,3,2,Residential,False,CIR
1900 DANBROOK DR,984,Fri May 16 00:00:00 EDT 2008,210944,38.668433,-121.50347099999999,SACRAMENTO,CA,95835,1,1,Condo,False,DR
140 VENTO CT,0,Fri May 16 00:00:00 EDT 2008,212500,38.793533000000004,-121.289685,ROSEVILLE,CA,95678,3,2,Condo,True,CT
8442 KEUSMAN ST,2329,Fri May 16 00:00:00 EDT 2008,213750,38.449651,-121.414704,ELK GROVE,CA,95758,4,2,Residential,False,ST
9552 SUNLIGHT LN,1351,Fri May 16 00:00:00 EDT 2008,215000,38.410561,-121.404327,ELK GROVE,CA,95758,3,2,Residential,False,LN
2733 YUMA CT,0,Fri May 16 00:00:00 EDT 2008,215000,38.691215,-120.994949,CAMERON PARK,CA,95682,2,2,Residential,True,CT
1407 TIFFANY CIR,1376,Fri May 16 00:00:00 EDT 2008,215000,38.736391999999995,-121.2664,ROSEVILLE,CA,95661,4,1,Residential,False,CIR
636 CRESTVIEW DR,1300,Fri May 16 00:00:00 EDT 2008,216033,38.688255,-120.810235,DIAMOND SPRINGS,CA,95619,3,2,Residential,False,DR
1528 HESKET WAY,1566,Fri May 16 00:00:00 EDT 2008,220000,38.593598,-121.40363700000002,SACRAMENTO,CA,95825,4,2,Residential,False,WAY
2327 32ND ST,1115,Fri May 16 00:00:00 EDT 2008,220000,38.557433,-121.47034,SACRAMENTO,CA,95817,2,1,Residential,False,ST
1833 2ND AVE,1032,Fri May 16 00:00:00 EDT 2008,220000,38.556818,-121.490669,SACRAMENTO,CA,95818,2,1,Residential,False,AVE
7252 CARRIAGE DR,1419,Fri May 16 00:00:00 EDT 2008,220000,38.698058,-121.29489299999999,CITRUS HEIGHTS,CA,95621,4,2,Residential,False,DR
9815 PASO FINO WAY,1261,Fri May 16 00:00:00 EDT 2008,220000,38.404888,-121.443998,ELK GROVE,CA,95757,3,2,Residential,False,WAY
5532 ENGLE RD,1637,Fri May 16 00:00:00 EDT 2008,220702,38.63173,-121.33528600000001,CARMICHAEL,CA,95608,2,2,Residential,False,RD
1139 CLINTON RD,1776,Fri May 16 00:00:00 EDT 2008,221250,38.585291,-121.406824,SACRAMENTO,CA,95825,4,2,Multi-Family,False,RD
9176 SAGE GLEN WAY,1338,Fri May 16 00:00:00 EDT 2008,222000,38.423913,-121.43911499999999,ELK GROVE,CA,95758,3,2,Residential,False,WAY
9967 HATHERTON WAY,0,Fri May 16 00:00:00 EDT 2008,222500,38.3052,-121.4033,ELK GROVE,CA,95757,0,0,Residential,True,WAY
9264 BOULDER RIVER WAY,2254,Fri May 16 00:00:00 EDT 2008,222750,38.421713000000004,-121.34519099999999,ELK GROVE,CA,95624,5,2,Residential,False,WAY
320 GROTH CIR,1441,Fri May 16 00:00:00 EDT 2008,225000,38.638882,-121.53188300000001,SACRAMENTO,CA,95834,3,2,Residential,False,CIR
137 GUNNISON AVE,1991,Fri May 16 00:00:00 EDT 2008,225000,38.650729,-121.46648300000001,SACRAMENTO,CA,95838,4,2,Residential,False,AVE
8209 RIVALLO WAY,2126,Fri May 16 00:00:00 EDT 2008,228750,38.459524,-121.3501,SACRAMENTO,CA,95829,4,3,Residential,False,WAY
8637 PERIWINKLE CIR,1094,Fri May 16 00:00:00 EDT 2008,229000,38.443184,-121.36438799999999,ELK GROVE,CA,95624,3,2,Residential,False,CIR
3425 MEADOW WAY,1462,Fri May 16 00:00:00 EDT 2008,230095,38.798028,-121.23536399999999,ROCKLIN,CA,95677,3,2,Residential,False,WAY
107 JARVIS CIR,2258,Fri May 16 00:00:00 EDT 2008,232500,38.639891,-121.537603,SACRAMENTO,CA,95834,5,3,Residential,False,CIR
2319 THORES ST,1074,Fri May 16 00:00:00 EDT 2008,233000,38.59675,-121.312716,RANCHO CORDOVA,CA,95670,3,2,Residential,False,ST
8935 MOUNTAIN HOME CT,2111,Fri May 16 00:00:00 EDT 2008,233500,38.38751,-121.370276,ELK GROVE,CA,95624,4,2,Residential,False,CT
2566 SERENATA WAY,1686,Fri May 16 00:00:00 EDT 2008,239000,38.671556,-121.52091599999999,SACRAMENTO,CA,95835,3,2,Residential,False,WAY
4085 COUNTRY DR,1915,Fri May 16 00:00:00 EDT 2008,240000,38.706209,-121.36950900000001,ANTELOPE,CA,95843,4,3,Residential,False,DR
9297 TROUT WAY,2367,Fri May 16 00:00:00 EDT 2008,240000,38.420637,-121.375798,ELK GROVE,CA,95624,4,2,Residential,False,WAY
7 ARCHIBALD CT,1962,Fri May 16 00:00:00 EDT 2008,240971,38.443305,-121.435296,SACRAMENTO,CA,95823,3,2,Residential,False,CT
11130 EEL RIVER CT,1406,Fri May 16 00:00:00 EDT 2008,242000,38.625932,-121.27151699999999,RANCHO CORDOVA,CA,95670,2,2,Residential,False,CT
8323 REDBANK WAY,1789,Fri May 16 00:00:00 EDT 2008,243450,38.455753,-121.349273,SACRAMENTO,CA,95829,3,2,Residential,False,WAY
16 BRONCO CREEK CT,1876,Fri May 16 00:00:00 EDT 2008,243500,38.674226000000004,-121.525497,SACRAMENTO,CA,95835,4,2,Residential,False,CT
8316 NORTHAM DR,1235,Fri May 16 00:00:00 EDT 2008,246544,38.720766999999995,-121.376678,ANTELOPE,CA,95843,3,2,Residential,False,DR
4240 WINJE DR,2504,Fri May 16 00:00:00 EDT 2008,246750,38.70884,-121.359559,ANTELOPE,CA,95843,4,2,Residential,False,DR
3569 SODA WAY,0,Fri May 16 00:00:00 EDT 2008,247000,38.631139000000005,-121.501879,SACRAMENTO,CA,95834,0,0,Residential,True,WAY
5118 ROBANDER ST,1676,Fri May 16 00:00:00 EDT 2008,247000,38.657267,-121.31035200000001,CARMICHAEL,CA,95608,3,2,Residential,False,ST
5976 KYLENCH CT,1367,Fri May 16 00:00:00 EDT 2008,249000,38.708966,-121.32467,CITRUS HEIGHTS,CA,95621,3,2,Residential,False,CT
9247 DELAIR WAY,1899,Fri May 16 00:00:00 EDT 2008,249000,38.422241,-121.458022,ELK GROVE,CA,95758,4,3,Residential,False,WAY
9054 DESCENDANT DR,1636,Fri May 16 00:00:00 EDT 2008,250000,38.428852,-121.415628,ELK GROVE,CA,95758,3,2,Residential,False,DR
3450 WHITNOR CT,1828,Fri May 16 00:00:00 EDT 2008,250000,38.627697999999995,-121.369698,SACRAMENTO,CA,95821,3,2,Residential,False,CT
6288 LONETREE BLVD,0,Fri May 16 00:00:00 EDT 2008,250000,38.804992999999996,-121.293609,ROCKLIN,CA,95765,0,0,Residential,True,BLVD
9355 MATADOR WAY,1438,Fri May 16 00:00:00 EDT 2008,252000,38.555633,-121.350691,SACRAMENTO,CA,95826,4,2,Residential,False,WAY
8671 SUMMER SUN WAY,1451,Fri May 16 00:00:00 EDT 2008,255000,38.442845,-121.373272,ELK GROVE,CA,95624,3,2,Residential,False,WAY
1890 GENEVA PL,1520,Fri May 16 00:00:00 EDT 2008,255000,38.599449,-121.400305,SACRAMENTO,CA,95825,3,1,Residential,False,PL
1813 AVENIDA MARTINA,1506,Fri May 16 00:00:00 EDT 2008,255000,38.776649,-121.33958899999999,ROSEVILLE,CA,95747,3,2,Residential,False,AVE
191 BARNHART CIR,2605,Fri May 16 00:00:00 EDT 2008,257200,38.675594,-121.515878,SACRAMENTO,CA,95835,4,2,Residential,False,CIR
6221 GREEN TOP WAY,1196,Fri May 16 00:00:00 EDT 2008,260000,38.679409,-121.21910700000001,ORANGEVALE,CA,95662,3,2,Residential,False,WAY
2298 PRIMROSE LN,1621,Fri May 16 00:00:00 EDT 2008,260000,38.89918,-121.32251399999998,LINCOLN,CA,95648,3,2,Residential,False,LN
5635 LOS PUEBLOS WAY,1811,Fri May 16 00:00:00 EDT 2008,263500,38.679190999999996,-121.537622,SACRAMENTO,CA,95835,3,2,Residential,False,WAY
10165 LOFTON WAY,1540,Fri May 16 00:00:00 EDT 2008,266510,38.387708,-121.436522,ELK GROVE,CA,95757,3,2,Residential,False,WAY
1251 GREEN RAVINE DR,0,Fri May 16 00:00:00 EDT 2008,267750,38.88156,-121.30134299999999,LINCOLN,CA,95648,4,2,Residential,True,DR
6001 SHOO FLY RD,0,Fri May 16 00:00:00 EDT 2008,270000,38.813546,-120.80925400000001,PLACERVILLE,CA,95667,0,0,Residential,True,RD
3040 PARKHAM DR,0,Fri May 16 00:00:00 EDT 2008,271000,38.770835,-121.366996,ROSEVILLE,CA,95747,0,0,Residential,True,DR
2674 TAM O SHANTER DR,0,Fri May 16 00:00:00 EDT 2008,272700,38.695801,-121.07921599999999,EL DORADO HILLS,CA,95762,4,2,Residential,True,DR
6007 MARYBELLE LN,0,Fri May 16 00:00:00 EDT 2008,275000,38.64347,-120.88818300000001,SHINGLE SPRINGS,CA,95682,0,0,Unkown,True,LN
9949 NESTLING CIR,1543,Fri May 16 00:00:00 EDT 2008,275000,38.397455,-121.468391,ELK GROVE,CA,95757,3,2,Residential,False,CIR
2915 HOLDREGE WAY,2494,Fri May 16 00:00:00 EDT 2008,276000,38.663728000000006,-121.525833,SACRAMENTO,CA,95835,5,3,Residential,False,WAY
2678 BRIARTON DR,1650,Fri May 16 00:00:00 EDT 2008,276500,38.844116,-121.27480600000001,LINCOLN,CA,95648,3,2,Residential,False,DR
294 SPARROW DR,2214,Fri May 16 00:00:00 EDT 2008,278000,38.258976000000004,-121.321266,GALT,CA,95632,4,3,Residential,False,DR
2987 DIORITE WAY,2280,Fri May 16 00:00:00 EDT 2008,279000,38.667332,-121.528276,SACRAMENTO,CA,95835,5,3,Residential,False,WAY
6326 APPIAN WAY,1443,Fri May 16 00:00:00 EDT 2008,280000,38.662659999999995,-121.31685800000001,CARMICHAEL,CA,95608,3,2,Residential,False,WAY
6905 COBALT WAY,1582,Fri May 16 00:00:00 EDT 2008,280000,38.691393,-121.30521499999999,CITRUS HEIGHTS,CA,95621,4,2,Residential,False,WAY
8986 HAFLINGER WAY,1857,Fri May 16 00:00:00 EDT 2008,285000,38.397923,-121.45021899999999,ELK GROVE,CA,95757,3,2,Residential,False,WAY
